id,area,Address,lat,lng
1,斗六市,斗六市大學路 中山路,23.6967903,120.5380048
2,斗六市,斗六市成功里鎮東路 中華路,23.7085119,120.552447
3,斗六市,斗六市成功里成功路 內環路,23.706667,120.5491605
4,斗六市,斗六市成功里成功路 鎮東路,23.7051788,120.5513978
5,斗六市,斗六市鎮東里大學路 文化路,23.7127369,120.5569543
6,斗六市,斗六市鎮東里內環路 文化路,23.7110268,120.5493652
7,斗六市,斗六市鎮東里育英北街 民生路,23.7142558,120.5512377
8,斗六市,斗六市鎮東里大同路 內環路,23.7095899,120.5494223
9,斗六市,斗六市忠孝里大同路 中正路,23.709586,120.5445619
10,斗六市,斗六市忠孝里大同路 永安街,23.7095665,120.5478922
11,斗六市,斗六市忠孝里中華路 中正路,23.7086011,120.5445465
12,斗六市,斗六市溝?里仁義路 外環路（電信機房）,23.673783,120.5374832
13,斗六市,斗六市溝?里光明路 泰安路,23.6756889,120.5322708
14,斗六市,斗六市林頭里成功路 林頭路,23.7001974,120.5560616
15,斗六市,斗六市林頭里榮譽路榮民之家前,23.7039808,120.5580537
16,斗六市,斗六市林頭里大學路市立托兒所前,23.699088,120.546042
17,斗六市,斗六市林頭里榮譽路 重光北路,23.7030031,120.5657629
18,斗六市,斗六市鎮南里榮譽路林頭國小側門,23.7046903,120.5571289
19,斗六市,斗六市鎮南里中山路 六合街,23.7059275,120.5395475
20,斗六市,斗六市鎮南里中山路 鎮南路,23.7052494,120.5394377
21,斗六市,斗六市鎮南里中山路 明德路,23.6980154,120.538078
22,斗六市,斗六市鎮南里民生南路 明德路,23.6982087,120.53701
23,斗六市,斗六市鎮南里永昌西街 九如街,23.7029011,120.5379427
24,斗六市,斗六市鎮南里中山路298巷,23.6956802,120.5405573
25,斗六市,斗六市鎮南里大學路縣警局前,23.6969719,120.5360149
26,斗六市,斗六市仁愛里永安路 成功路,23.7075226,120.5478607
27,斗六市,斗六市仁愛里永安路 文化路,23.7109787,120.5479198
28,斗六市,斗六市仁愛里中正路 成功路,23.7075769,120.544534
29,斗六市,斗六市明德里鎮北路686巷 702巷,23.7258124,120.539155
30,斗六市,斗六市四維里大同路 太平路,23.7098507,120.5425842
31,斗六市,斗六市四維里成功路 公正街,23.7078809,120.543488
32,斗六市,斗六市長平里長林路 石林路,23.6962974,120.5068755
33,斗六市,斗六市長平里保長路612號前,23.7058367,120.5209852
34,斗六市,斗六市長平里長平路 長平北路,23.7030737,120.504747
35,斗六市,斗六市長平里雲林路 長林路,23.6951303,120.5072747
36,斗六市,斗六市虎溪里西平路 正心路,23.7155966,120.5303951
37,斗六市,斗六市虎溪里虎溪路 西平路,23.7217442,120.5259281
38,斗六市,斗六市虎溪里文生路 保長橋頭,23.721195,120.522065
39,斗六市,斗六市虎溪里文昌路鄰里公園,23.713901,120.555647
40,斗六市,斗六市虎溪里西平路496巷交叉口,23.7203691,120.5279396
41,斗六市,斗六市梅林里南仁路 梅林路,23.7029459,120.5971124
42,斗六市,斗六市梅林里梅林路 湖山路,23.7027137,120.5982303
43,斗六市,斗六市梅林里梅東路梅南橋前,23.701133,120.6000106
44,斗六市,斗六市梅林里梅林路 梅東路,23.7025183,120.6000815
45,斗六市,斗六市梅林里埤頭路 埤頭北路,23.7025836,120.5781134
46,斗六市,斗六市梅林里埤頭路承天宮前,23.7027852,120.5771023
47,斗六市,斗六市梅林里梅林路 水源路,23.7012432,120.6053207
48,斗六市,斗六市湖山里羨林路 岩山路,,
49,斗六市,斗六市湖山里岩山路 林森路,23.7033403,120.611167
50,斗六市,斗六市湖山里楓樹路福興宮前,23.7153771,120.6158974
51,斗六市,斗六市湖山里湖山路127號前叉路,23.7085839,120.6003715
52,斗六市,斗六市湖山里湖山路 斗工八路,23.7160238,120.5961838
53,斗六市,斗六市湖山里復天宮前,23.7076689,120.599988
54,斗六市,斗六市湖山里楓湖路內湖橋頭,,
55,斗六市,斗六市社口里鎮南路 中堅東路,23.6998593,120.5416
56,斗六市,斗六市社口里鎮南路 中堅東路130巷,23.7004393,120.5414545
57,斗六市,斗六市社口里鎮南路100巷,23.7021695,120.5402704
58,斗六市,斗六市社口里鎮南路 立德街,23.7036865,120.5401617
59,斗六市,斗六市社口里鎮南路 中山路,23.7034837,120.5402554
60,斗六市,斗六市社口里六合街 鎮南路,23.7020874,120.540988
61,斗六市,斗六市社口里六合街 莊敬街,23.703527,120.541474
62,斗六市,斗六市重光里重光路 重光南路西口,23.6932135,120.5666599
63,斗六市,斗六市重光里重光路 重光南路東口,23.6932135,120.5666599
64,斗六市,斗六市重光里榮譽路二城社區,23.7033436,120.563993
65,斗六市,斗六市重光里重光路 成功路,23.6932135,120.5666599
66,斗六市,斗六市重光里重光南路 重光東路,23.692075,120.5686074
67,斗六市,斗六市嘉東里嘉東中路 鎮南路,23.6865956,120.5481356
68,斗六市,斗六市嘉東里嘉東中路 嘉東北路,23.6858751,120.545323
69,斗六市,斗六市嘉東里劉厝路 鎮南路,23.679786,120.557111
70,斗六市,斗六市嘉東里嘉東南路 崙南路,23.6799764,120.5492607
71,斗六市,斗六市龍潭里忠孝路 仁愛路,23.6939112,120.5255798
72,斗六市,斗六市龍潭里四維路 大學路,23.6954024,120.5298449
73,斗六市,斗六市龍潭里府文路 忠孝路,23.6942865,120.5277031
74,斗六市,斗六市龍潭里府文路 龍潭北路,23.6917777,120.5275001
75,斗六市,斗六市龍潭里龍潭南路283號前,23.6885936,120.5271419
76,斗六市,斗六市八德里文化路 豐興路,23.7138309,120.559835
77,斗六市,斗六市八德里引導路引善寺,23.7104719,120.566451
78,斗六市,斗六市八德里豐興路56號前丁字路,23.7199381,120.5587799
79,斗六市,斗六市鎮北里育英北街 北祥街,23.7164227,120.5510779
80,斗六市,斗六市明德里明德北路 育英北街,23.7174043,120.5510323
81,斗六市,斗六市公誠里漢口路 長春路,23.7131681,120.5409988
82,斗六市,斗六市公誠里鎮北路 北平路,23.7171156,120.5427387
83,斗六市,斗六市公誠里南京路 長春路,23.7144023,120.5400595
84,斗六市,斗六市公誠里天津路 杭州街,23.7165859,120.540706
85,斗六市,斗六市公誠里長春路 青島路,23.7163816,120.538615
86,斗六市,斗六市公誠里宏德街 明德北路,23.7172951,120.5391426
87,斗六市,斗六市三平里西平路 明德北路,23.713602,120.5333262
88,斗六市,斗六市三平里西平路 南京路,23.7116957,120.5358087
89,斗六市,斗六市三平里北平路 慶生路,23.7147399,120.538545
90,斗六市,斗六市三平里上海路 慶生路,23.7133025,120.5396505
91,斗六市,斗六市崙峰里崙北路 仁義路,23.6826636,120.538988
92,斗六市,斗六市崙峰里仁義路郵局旁,23.6790401,120.538455
93,斗六市,斗六市崙峰里崙南路88號前丁字路,23.679346,120.54221
94,斗六市,斗六市崙峰里崙南路71號旁路,23.6833843,120.5421104
95,斗六市,斗六市公正里中正路 莊敬路,23.7033292,120.5446037
96,斗六市,斗六市公正里中正路 內環路,23.7056468,120.544547
97,斗六市,斗六市公正里莊敬路 凱旋街,23.703363,120.5429818
98,斗六市,斗六市信義里愛國街 大同路,23.7106081,120.5417629
99,斗六市,斗六市信義里民生路 大同路,23.7113091,120.5413589
100,斗六市,斗六市信義里省中街 文化路,23.7109712,120.5445009
101,斗六市,斗六市鎮西里雲林路 保長路、雲南街,23.707997,120.5302363
102,斗六市,斗六市鎮西里鎮西路 雲林路,23.7011847,120.5319716
103,斗六市,斗六市鎮西里府文路 雲林路,23.6992004,120.5272594
104,斗六市,斗六市鎮西里中堅西路 建成路,23.7025106,120.5317417
105,斗六市,斗六市鎮西里永昌西街 建成路,23.704142,120.5339943
106,斗六市,斗六市鎮西里雲林路 大學路,23.6960596,120.5340433
107,斗六市,斗六市鎮西里民生南路 建成街,23.7059203,120.5370442
108,斗六市,斗六市光興里雲林路 西平路,23.7123016,120.5356714
109,斗六市,斗六市光興里中山路 雲林路,23.7009774,120.5383953
110,斗六市,斗六市光興里中山路 大同路,23.7101032,120.5420859
111,斗六市,斗六市光興里民生路 雲林路,23.710061,120.539144
112,斗六市,斗六市中和里太平路 府前街,23.7072385,120.5407545
113,斗六市,斗六市中和里西平路 中山路郵局前,23.7067289,120.5396199
114,斗六市,斗六市中和里西平路 愛國街,23.70872,120.5387545
115,斗六市,斗六市中和里民生路 西平路地下道,23.709277,120.5382955
116,斗六市,斗六市太平里公正街 內環路,23.7068371,120.543406
117,斗六市,斗六市太平里城頂街 力行街,23.7071372,120.5424261
118,斗六市,斗六市十三里十三北路 十三南路,23.7482401,120.5729315
119,斗六市,斗六市十三里十三南路 貞寮路,23.7417481,120.5654694
120,斗六市,斗六市長安里萬年路 萬年東路,23.7323236,120.5529947
121,斗六市,斗六市長安里河堤北路 萬年東路,23.7293903,120.5568808
122,斗六市,斗六市長安里萬年路 石榴班路,23.727639,120.576237
123,斗六市,斗六市長安里長安路 施瓜寮橋頭,23.734679,120.531437
124,斗六市,斗六市榴中里中興路 石榴班路,23.727639,120.576237
125,斗六市,斗六市榴中里河南街 石榴路,23.7188564,120.5735225
126,斗六市,斗六市榴中里石榴路 福興路,23.7285178,120.5902432
127,斗六市,斗六市榴中里長和路長和宮前,23.7246673,120.5769388
128,斗六市,斗六市榴中里石榴路 振興路,23.7206699,120.578713
129,斗六市,斗六市榴中里榴中路 中興路,23.7244282,120.5786492
130,斗六市,斗六市榴中里榴中路 南環路,23.7228109,120.5774034
131,斗六市,斗六市榴中里光復路尾往工業區路,23.7238729,120.5952281
132,斗六市,斗六市榴中里南環路 長和路,23.7229911,120.5763502
133,斗六市,斗六市榴中里中興路 南、北環路,23.7239618,120.5808865
134,斗六市,斗六市榴中里北環路 中興巷,23.7239618,120.5808865
135,斗六市,斗六市榴中里福興路春普芳鄰前,23.7280603,120.5918809
136,斗六市,斗六市榴中里石榴路 光復路,23.7228064,120.5834538
137,斗六市,斗六市榴中里中興路 中興巷,23.7257147,120.5770213
138,斗六市,斗六市榴中里中興社區活動中心,23.723046,120.5829129
139,斗六市,斗六市榴中里振興路 南環路,23.7227324,120.5779568
140,斗六市,斗六市榴中里榴南路80號前,23.7175756,120.5794062
141,斗六市,斗六市榴中里北環路榴中福德宮前,23.7249655,120.5812492
142,斗六市,斗六市榴中里南仁路33巷,23.7223459,120.5844477
143,斗六市,斗六市三光里頂柴路 台3線三叉路,23.6634453,120.5371353
144,斗六市,斗六市三光里柴裡枝19號桿左7路,23.660109,120.528095
145,斗六市,斗六市三光里下柴路 板橋路,23.6609417,120.5278382
146,斗六市,斗六市三光里板橋東營廟前路,,
147,斗六市,斗六市榴北里文明路 中興路,23.7254983,120.5776138
148,斗六市,斗六市榴北里文明路 北環路,23.7265323,120.5784186
149,斗六市,斗六市榴北里石榴火車站 田部,23.7316631,120.5799898
150,斗六市,斗六市榴北里中興路萬善宮前後,23.7274079,120.5752329
151,斗六市,斗六市榴北里中興路 南環路,23.7258282,120.575859
152,斗六市,斗六市榴北里石榴班火車站前,23.7316631,120.5799898
153,斗六市,斗六市榴北里中興路 中興路132巷,23.7257147,120.5770213
154,斗六市,斗六市榴北里田部振王宮前,23.7301765,120.5833582
155,斗六市,斗六市榴南里南仁路 工業路,23.7195669,120.5853136
156,斗六市,斗六市榴南里南仁路 斗工十路,23.7133023,120.5876438
157,斗六市,斗六市榴南里榴南橋旁,,
158,斗六市,斗六市榴南里榴?1街 10街,23.7124763,120.5906122
159,斗六市,斗六市榴南里榴?3街 斗工十路,23.7133023,120.5876438
160,斗六市,斗六市榴南里斗工九路 八路,23.7158068,120.5986548
161,斗六市,斗六市榴南里榴?3街 20街,23.7124763,120.5906122
162,斗六市,斗六市榴南里榴南路豐帝旁入庄路,,
163,斗六市,斗六市榴南里榴南路208巷,23.7157411,120.5821541
164,斗六市,斗六市榴南里南仁路福德宮前,23.7177886,120.5844739
165,斗六市,斗六市榴南里南仁路南仁寺前,23.7123839,120.587673
166,斗六市,斗六市榴南里南仁路 90巷,23.7153247,120.5869688
167,斗六市,斗六市榴南里南仁路92號丁字路,23.7180796,120.5862462
168,斗六市,斗六市榴南里斗工二路 斗工一路,23.7140042,120.5924675
169,斗六市,斗六市榴南里斗工一路 斗工十路,23.7140042,120.5924675
170,斗六市,斗六市榴南里斗工十路 榴?一街,,
171,斗六市,斗六市江厝里江厝路金熙宮前路,23.6728508,120.5276339
172,斗六市,斗六市江厝里新厝路庄北,23.6689125,120.5145668
173,斗六市,斗六市江厝里瓦厝路玄安宮旁路,23.6690019,120.5140006
174,斗六市,斗六市久安里雲林路 久安路,23.6832487,120.51147
175,斗六市,斗六市保庄里豐年橋前（新）,23.700125,120.52509
176,斗六市,斗六市溪州里萬年路溪州國小前,23.7409854,120.5549604
177,斗六市,斗六市溪州里中南路290巷丁字路,23.7340815,120.5609939
178,斗六市,斗六市梅林里梅林路26巷,23.7027057,120.5982768
179,斗六市,斗六市鎮北路 北平路,23.7171156,120.5427387
180,斗六市,斗六市民生南路 中堅西路,23.7002659,120.5370486
181,斗六市,斗六市太平路7號5樓,23.7104824,120.5428572
182,斗六市,斗六市萬年路 河堤路,23.7248431,120.5471581
183,斗六市,斗六市貞寮路 竹圍路,23.7432545,120.5569355
184,斗六市,斗六市楓湖路 光復路,23.7245316,120.5951257
185,斗六市,斗六市大學路 鎮南路,23.6960596,120.5340433
186,斗六市,斗六市仁義路4巷71號前,23.679548,120.538579
187,斗六市,斗六市嘉新路 鎮南路,23.6805477,120.5523252
188,斗六市,斗六市興華街1之3號5樓,23.7112227,120.5428534
189,斗六市,斗六市西平路 雲科路,23.7279754,120.5222146
190,斗六市,斗六市仁義路 泰安路,23.6731018,120.5370804
191,斗六市,斗六市雲林縣政府 雲林縣政府選舉委員會,23.6988201,120.5272572
192,斗六市,斗六市明德路 公明路,23.6999197,120.5320779
193,斗六市,斗六市中華路 永樂街,23.7085956,120.5470451
194,斗六市,斗六市檨林路玉當山橋前,23.6935085,120.62334
195,斗六市,斗六市公理路 明德路,23.69845,120.5358353
196,斗六市,斗六市文生路 西平路,23.7197578,120.5269661
197,斗六市,斗六市雲78線溝埧交流道匣道口,,
198,斗六市,斗六市國道3號林內交流道匣道口,,
199,斗六市,斗六市大學路一段 成功路 ,23.7029932,120.5538027
200,斗六市,斗六市大學路一段 榮譽路 ,23.7047214,120.5547051
201,斗六市,斗六市榮譽路 引善路,23.7028261,120.5684437
202,斗六市,斗六市雲213線 梅庄路 ,23.6975368,120.5940958
203,斗六市,斗六市雲214線溪底路,23.6971143,120.5269987
204,斗六市,斗六市林森路 檨林路,23.69383,120.62212
205,斗六市,斗六市西平路 長安路（舊榮橋）,23.7327222,120.5182499
206,斗六市,斗六市鎮北路 萬年路,23.7202115,120.5418415
207,斗六市,斗六市仁義路 崙南路,23.679762,120.5384258
208,斗六市,斗六市文昌路 文生路,23.7171752,120.5242479
209,斗六市,斗六市榴中里石榴路（台3線） 榴南路（工業區入口）1,23.7197261,120.5760965
210,斗六市,斗六市榴中里石榴路（台3線） 榴南路（工業區入口）2,23.7197261,120.5760965
211,斗六市,斗六市榴中里石榴路（台3線） 河南路（工業區入口）,23.7227526,120.5831967
212,斗六市,斗六市榴中里榴南路 榴南38巷,23.719199,120.5770187
213,斗六市,斗六市保長路 明德北路三段路,23.7054705,120.5293644
214,斗六市,斗六市長平里石林路進天宮前,23.6963001,120.5102077
215,斗六市,斗六市鎮北路 民生路,23.7124292,120.5432707
216,斗六市,斗六市建興路 文生路,23.7097789,120.5263179
217,斗六市,斗六市鎮東里民生路 警民街,23.7142901,120.552872
218,斗六市,斗六市鎮東里警民街巷,23.7129337,120.5543755
219,斗六市,斗六市文化路646巷67號前路,23.709235,120.563334
220,斗六市,斗六市漢口路 廈門路,23.7113881,120.5382371
221,斗六市,斗六市鎮北路 河堤南、北路,23.7112898,120.5434865
222,斗六市,斗六市慶生路 武昌路,23.7121117,120.5405786
223,斗六市,斗六市大學路 文化路3,23.6955622,120.5249476
224,斗六市,斗六市棒球場棒球6街 斗六3路,23.7166249,120.5353879
225,斗六市,斗六市龍潭里信義路 八德路,23.6929936,120.5286773
226,斗六市,斗六市梅東路 梅林路梅南橋T字路,23.7005913,120.5999381
227,斗六市,斗六市湖山水庫大壩工程材料運輸道路 梅林路,,
228,斗六市,斗六市湖山水庫大壩工程材料運輸道路 湖山路（137號）,,
229,斗六市,斗六市湖山水庫大壩工程材料運輸道路 湖山路(72之4號),,
230,斗六市,斗六市湖山水庫大壩工程材料運輸道路 楓湖路,,
231,斗六市,斗六市湖山水庫大壩工程材料運輸道路 楓湖路（29之2號）,,
232,斗六市,斗六市湖山水庫大壩工程材料運輸道路 光復路,,
233,斗六市,斗六市湖山水庫大壩工程材料運輸道路 石榴路,,
234,斗六市,斗六市長安里萬年東路仁盛橋前,,
235,斗六市,斗六市十三里十三北路 竹興路（雲65線）,23.7517819,120.5694753
236,斗六市,斗六市十三里中興路 十三東路,23.7336734,120.5676107
237,斗六市,斗六市長安里萬年路 萬年路456巷,23.7286802,120.5507883
238,斗六市,斗六市長安里萬年路福德宮前,23.7082981,120.542078
239,斗六市,斗六市建成路 雲南街路,23.7048963,120.5350015
240,斗六市,斗六市光興里民生路 興北街,23.7107593,120.5404864
241,斗六市,斗六市光興里民生路 興中街,23.7102989,120.5397735
242,斗六市,斗六市光興里雲林路一段 興南街,23.7089818,120.5398236
243,斗六市,斗六市中華路 內環路,23.7085507,120.5494507
244,斗六市,斗六市中華路 田單街路,23.7085354,120.5504136
245,斗六市,斗六市北平路 昆明路,23.7129595,120.5357181
246,斗六市,斗六市北祥街 內環路,23.715563,120.5451768
247,斗六市,斗六市八德里豐興路157巷 豐興路85巷,23.7151202,120.5594363
248,斗六市,斗六市保庄里後庄慈惠宮前路,23.700125,120.52509
249,斗六市,斗六市保庄里後庄46號前路,23.6997042,120.5239091
250,斗六市,斗六市溪州里貞寮路 中南路290巷35弄路,23.7361161,120.5649104
251,斗六市,斗六市溪州里萬年路 竹興路,23.7409854,120.5549604
252,斗六市,斗六市鎮東里文化路 鎮東路,23.7116001,120.552426
253,斗六市,斗六市鎮東里鎮東路 鎮東路39巷,23.7107268,120.5525315
254,斗六市,斗六市鎮東里鎮東路39巷25號前路,23.7111579,120.5541733
255,斗六市,斗六市明德路 武陵街,23.698677,120.5350828
256,斗六市,斗六市久安里久安路久福街,23.6778718,120.5140294
257,斗六市,斗六市文化路 引善路,23.7168848,120.5679875
258,斗六市,斗六市中堅東路 大仁街,23.6999613,120.5389545
259,斗六市,斗六市永興路 深圳路,23.6849339,120.5177175
260,斗六市,斗六市豐興路 豐興171巷,23.7143188,120.5596551
261,斗六市,斗六市雲科路 科工七路,23.7194397,120.502791
262,斗六市,斗六市明德北路 鎮北路,23.7259714,120.537723
263,斗六市,斗六市嘉祿路66號前,23.7138464,120.5036903
264,斗六市,斗六市三平里北平路55巷74號前路,23.71476,120.536642
265,斗六市,斗六市三平里棒球十街 棒球十一街路,23.7197545,120.5348311
266,斗六市,斗六市民生南路 永昌西街,23.7030131,120.5370359
267,斗六市,斗六市南興街 九如街,23.7039753,120.5381299
268,斗六市,斗六市西平路 漢口路,23.7106585,120.5371049
269,斗六市,斗六市榴中里光復路自來水公園,23.7245316,120.5951257
270,斗六市,斗六市光興里民生路144巷 愛國街21巷,23.7078318,120.537334
271,斗六市,斗六市光興里民生路旁便道,23.7102989,120.5397735
272,斗六市,斗六市長安里萬年東路 中南路,23.731977,120.5536178
273,斗六市,斗六市長安里長安北路 長安路,23.7368358,120.5381262
274,斗六市,斗六市長安里長安路 長安西路,23.7344007,120.5333561
275,斗六市,斗六市鎮東里文化路 文華街路,23.711178,120.5500848
276,斗六市,斗六市鎮東里文華路 文治街,23.713061,120.5486377
277,斗六市,斗六市鎮東里鎮東路 鎮東路55巷、61巷,23.7117554,120.5522763
278,斗六市,斗六市榴中里榴南路14巷 22巷,23.719199,120.5770187
279,斗六市,斗六市虎溪里西平路 雲科路三段路,23.7279754,120.5222146
280,斗六市,斗六市虎溪里崙仔路中和宮前路,23.7180007,120.5099562
281,斗六市,斗六市虎溪里西平路 興農路,23.7223256,120.5256303
282,斗六市,斗六市虎溪里西平路 虎溪路,23.7217442,120.5259281
283,斗六市,斗六市新梅林橋南端,23.7091584,120.5907056
284,斗六市,斗六市文化路 內環路,23.7110268,120.5493652
285,斗六市,斗六市鎮北路 斗六二路,23.7219893,120.5405921
286,斗六市,斗六市鎮北路 武昌路,23.713509,120.5431574
287,斗六市,斗六市龍潭路 八德路,23.6915719,120.5286227
288,斗六市,斗六市育英北街87巷 90巷,23.7091584,120.5907056
289,斗六市,斗六市興西街 愛國街,23.7110268,120.5493652
290,斗六市,斗六市久安路 久安路158巷,23.7219893,120.5405921
291,斗六市,斗六市鎮東里鎮東路 大同路,23.713509,120.5431574
292,斗六市,斗六市文化路788巷71號(斗六名門)旁路,23.6915719,120.5286227
293,斗六市,斗六市西平路264巷89號前路,23.7143445,120.535391
294,斗六市,斗六市西平路264巷19號前路,23.7134203,120.5348914
295,斗六市,斗六市久安中路 久安東路,23.6823288,120.5139981
296,斗六市,斗六市文化路646巷 文化路646巷11弄口,23.7133167,120.5611152
297,斗六市,斗六市十三北路30之1號旁路,23.7513156,120.5710804
298,斗六市,斗六市文化路 安順街,23.7123105,120.5556981
299,斗六市,斗六市大學路一段201巷100弄31號旁路,23.7096124,120.5594216
300,斗六市,斗六市中華路 中華路735巷,23.7078183,120.5589818
301,斗六市,斗六市內環路 內環路724巷,23.7118852,120.5487695
302,斗六市,斗六市大同路279巷 279巷10弄口,23.7103,120.550183
303,斗六市,斗六市中山路 中堅西路,23.7000337,120.5382234
304,斗六市,斗六市中山路 永昌東、西街,23.7028333,120.5388642
305,斗六市,斗六市六合街 立德街,23.7042764,120.5414154
306,斗六市,斗六市大同路 三民路,23.7095652,120.5452376
307,斗六市,斗六市育英北街 育樂街,23.7177652,120.5516669
308,斗六市,斗六市榮譽路157巷內路,23.705611,120.5561662
309,斗六市,斗六市武昌路 延平路,23.7115583,120.5396799
310,斗六市,斗六市公明路 公理路,23.6973178,120.5313537
311,斗六市,斗六市斗工二路 工業路,23.7214672,120.5883402
312,斗六市,斗六市斗六二路柚子園產業道路(往虎溪),,
313,斗六市,斗六市鎮北路 上海路,23.7152621,120.5429704
314,斗六市,斗六市西平路 西平路252巷,23.7125511,120.5346514
315,斗六市,斗六市西平路 西平路264巷,23.712741,120.5343822
316,斗六市,斗六市府文路 埤口路,23.6967214,120.5278938
317,斗六市,斗六市雲林路 大學路,23.6960596,120.5340433
318,斗六市,斗六市仁義路 外環路(台糖加油站前),,
319,斗六市,斗六市雲林路二段 明德陸橋下路,23.7088828,120.5300047
320,斗六市,斗六市北平路 宏德街,23.71574,120.5401895
321,斗六市,斗六市慶生路 南京路,23.7138558,120.5392325
322,斗六市,斗六市湖山路127號前路,23.7085839,120.6003715
323,斗六市,斗六市溪洲里中南路290巷65弄 66弄口,23.7319109,120.5607133
324,斗六市,斗六市貞寮路112巷 115巷,23.7383225,120.5647098
325,斗六市,斗六市自由路 平等街,23.7050524,120.5473603
326,斗六市,斗六市成功路 莊敬路,23.7046711,120.5519561
327,斗六市,斗六市萬年路46號前路,23.7217782,120.5440544
328,斗六市,斗六市育英北街112巷46號旁路,23.7125374,120.5514476
329,斗六市,斗六市育英北街 北祥街,23.7164227,120.5510779
330,斗六市,斗六市仁義路13巷53號前路,23.6889967,120.5397955
331,斗六市,斗六市中華路 太平路,23.7092326,120.5422504
332,斗六市,斗六市文化路 永樂街,23.7109661,120.5470978
333,斗六市,斗六市中山路 龍潭路,23.6941698,120.5381551
334,斗六市,斗六市南京西路 保源二街,23.7093027,120.533362
335,斗六市,斗六市仁義路 台78線交流道南端路,23.6687676,120.5337034
336,斗六市,斗六市仁義路 外環道北端路,23.6919908,120.5260248
337,斗六市,斗六市龍潭里龍潭北路 龍潭北路40巷,23.7085821,120.5478617
338,斗六市,斗六市中華路 永安路,23.7020045,120.5566647
339,斗六市,斗六市南聖路 楓溝街,23.7020045,120.5566647
340,斗六市,斗六市楓溝街 榮譽路220巷,23.7021058,120.5595878
341,斗六市,斗六市江厝里江厝路98號旁路,23.6742636,120.5270765
342,斗六市,斗六市永興路 楊厝路天龍宮旁路,23.687426,120.517763
343,林內鄉,林內鄉國道三號林內交流道,23.7310215,120.5931775
344,林內鄉,林內鄉白馬山菩隄寺 ,23.732885,120.610263
345,林內鄉,林內鄉三權路 楓湖路 ,23.7263845,120.6212609
346,林內鄉,林內鄉弘德橋  ,,
347,林內鄉,林內鄉雲60線 茂興橋  ,,
348,林內鄉,林內鄉中正路 林內路 ,23.7525566,120.6111769
349,林內鄉,林內鄉林內路 中西路 ,23.7587066,120.6132415
350,林內鄉,林內鄉中西路 新興路 ,23.7597238,120.6125989
351,林內鄉,林內鄉中正路 中西路 ,23.7525566,120.6111769
352,林內鄉,林內鄉中正東路 增產路,23.7587066,120.6132415
353,林內鄉,林內鄉中正東路 坪頂路,23.7597238,120.6125989
354,林內鄉,林內鄉坪頂村入口,23.7563966,120.6458749
355,林內鄉,林內鄉進興路 下厝仔橋 ,23.774186,120.582415
356,林內鄉,林內鄉和興路 進興橋  ,23.7752629,120.588505
357,林內鄉,林內鄉雲63 烏塗路(進雄宮) ,23.7692747,120.5981336
358,林內鄉,林內鄉烏塗路 雲64線路,23.7694208,120.5979738
359,林內鄉,林內鄉雲63線鎮安宮 ,23.7465175,120.601082
360,林內鄉,林內鄉重興派出所前十字路,23.768048,120.5776128
361,林內鄉,林內鄉林內火車站前,23.7597524,120.6149758
362,林內鄉,林內鄉新光路 林內路,23.7717464,120.6375398
363,林內鄉,林內鄉重興村154線 雲65線路,23.7669931,120.5741674
364,林內鄉,林內鄉國道3號林內交流道匣道口,,
365,林內鄉,林內鄉中央路 大同路,23.743019,120.6052726
366,林內鄉,林內鄉中山路 中正路,23.7587979,120.615897
367,林內鄉,林內鄉141線（南雲大橋） 林內路,23.7722242,120.6296997
368,林內鄉,林內鄉彰雲路 林內路（彰雲大橋）,23.7831461,120.635554
369,林內鄉,林內鄉烏麻村永安路 永昌路,23.7551419,120.5889569
370,林內鄉,林內鄉台三線外環道 雲144線路,,
371,林內鄉,林內鄉林中村榮興23號前路,23.7600161,120.6119362
372,林內鄉,林內鄉林中村榮興32號旁路,23.7613982,120.6131828
373,林內鄉,林內鄉九芎村大同路 民族路,23.7422457,120.6043072
374,林內鄉,林內鄉九芎村中央路 九芎外環道路,23.744534,120.602038
375,林內鄉,林內鄉湖本村三權路 七星路,23.7263845,120.6212609
376,林內鄉,林內鄉台林內路 增產路,23.7804316,120.6156918
377,林內鄉,林內鄉烏塗村進雄宮前十字路（重興所）,23.7692747,120.5981336
378,林內鄉,林內鄉林中村公園路58號前路,23.7550174,120.6133707
379,林內鄉,林內鄉林北村中正東路134巷18號,23.7643399,120.6238539
380,林內鄉,林內鄉中正路 公園路,23.7556622,120.6131402
381,林內鄉,林內鄉烏塗村烏塗30號路,23.7731509,120.5987784
382,林內鄉,林內鄉重興村1291號前路,23.7683541,120.5756197
383,林內鄉,林內鄉九芎外環路道（舊天元莊前）,23.744534,120.602038
384,林內鄉,林內鄉烏麻村長源路 永昌路,23.7538869,120.5941394
385,林內鄉,林內鄉義峰高中旁路,23.7596526,120.5934384
386,林內鄉,林內鄉九芎地下道前路,23.744534,120.602038
387,林內鄉,林內鄉林茂村中正路 中興路,23.7511845,120.6104267
388,林內鄉,林內鄉湖本村三權路319巷,23.7334509,120.6090341
389,林內鄉,林內鄉湖本村七星路 自強路,23.7263845,120.6212609
390,林內鄉,林內鄉重興村154線重興路142號旁路,23.7682106,120.5748692
391,林內鄉,林內鄉重興村進興路 新華路,,
392,林內鄉,林內鄉林北村中正東路 增產路,23.7640496,120.6217965
393,林內鄉,林內鄉中正東路 林北街,23.7653736,120.623724
394,林內鄉,林內鄉林北街往林北大坑路,,
395,林內鄉,林內鄉林北村中正東路202巷 202巷3弄口,23.7652772,120.6234492
396,林內鄉,林內鄉林北村新光路 新光路21巷,23.7700257,120.634441
397,林內鄉,林內鄉九芎村中央路 和平路,23.7453546,120.6025251
398,林內鄉,林內鄉雲62線 新外環道路,,
399,林內鄉,林內鄉雲72線（永安路） 新外環道路,,
400,林內鄉,林內鄉三星路國道3號橋下旁路,,
401,林內鄉,林內鄉仁愛路國道3號橋下旁路,,
402,林內鄉,林內鄉154線國道3號橋下旁路,,
403,林內鄉,林內鄉國道3號橋下產業道路往忠庄路,,
404,林內鄉,林內鄉雲62線國道3號橋下旁路,,
405,林內鄉,林內鄉雲721線國道3號橋下旁路,,
406,林內鄉,林內鄉台3線 防汛道路,,
407,林內鄉,林內鄉雲67線國道3號橋下旁路,,
408,林內鄉,林內鄉新光路 雲61線路(往坪頂村),23.7688626,120.6294958
409,林內鄉,林內鄉林內路 增產路 (鉛片厝),23.7665854,120.62007
410,林內鄉,林內鄉中正路 建國巷,23.759958,120.617727
411,林內鄉,林內鄉大埔路 民光路,23.7424174,120.5977241
412,林內鄉,林內鄉烏塗村和興40之2號旁路,23.7752871,120.5968297
413,林內鄉,林內鄉烏塗村和興27號旁路,23.777698,120.60968
414,林內鄉,林內鄉九芎公墓 民光路(過涵洞三角公園處),23.7436736,120.6005485
415,林內鄉,林內鄉烏塗村忠庄10號旁路,23.76249,120.600353
416,林內鄉,林內鄉烏麻村雲62線 雲67線路,23.7538869,120.5919507
417,林內鄉,林內鄉烏麻村長源路長源宮旁路,23.761485,120.600497
418,林內鄉,林內鄉林中村中正路82巷 光明路,23.7609439,120.6178312
419,莿桐鄉,莿桐鄉台1線 農校路（雲54）路,23.7475947,120.4976314
420,莿桐鄉,莿桐鄉台1丁 外環路（十字路）,,
421,莿桐鄉,莿桐鄉饒平路 饒平西路（三叉路）,23.7785792,120.5189529
422,莿桐鄉,莿桐鄉中正路 中山路,23.7573061,120.5000823
423,莿桐鄉,莿桐鄉莿桐村中正路 光復路,23.7572668,120.5011315
424,莿桐鄉,莿桐鄉中正路 延平路（台1線）,23.7576701,120.4965982
425,莿桐鄉,莿桐鄉台1線僑和國小前,23.763683,120.492543
426,莿桐鄉,莿桐鄉台1線 中山路 ,23.7837962,120.4740102
427,莿桐鄉,莿桐鄉台1線 中山路 ,23.7837962,120.4740102
428,莿桐鄉,莿桐鄉東興路六合村活動中心前（24之1號）,23.768463,120.563331
429,莿桐鄉,莿桐鄉六合村東興路新庄路新興路,23.768463,120.563331
430,莿桐鄉,莿桐鄉興貴村雲51線（興北路三聖宮旁十字路）,23.7734899,120.5210108
431,莿桐鄉,莿桐鄉台一丁線西平路 雲74線路（光華寺旁）,23.7374392,120.5149297
432,莿桐鄉,莿桐鄉大美村溪底2號旁,23.735786,120.51617
433,莿桐鄉,莿桐鄉大美村溪底18之2號前十字路,23.735786,120.51617
434,莿桐鄉,莿桐鄉大美村台1線溪底26號前十字路,23.7389031,120.493519
435,莿桐鄉,莿桐鄉台1線延平路5叉路,23.750459,120.4969611
436,莿桐鄉,莿桐鄉台1線延平路 中山路北端,23.7517349,120.4949494
437,莿桐鄉,莿桐鄉莿桐村外環道 光南路（莿桐所）,,
438,莿桐鄉,莿桐鄉埔子村中正路（台1丁線） 雲54線路,23.7502235,120.5066381
439,莿桐鄉,莿桐鄉莿桐村雲70線 延平路16巷,,
440,莿桐鄉,莿桐鄉中山路 興安路十字路,23.757967,120.5001483
441,莿桐鄉,莿桐鄉育仁國小往南接本村南環路,23.7586937,120.4871521
442,莿桐鄉,莿桐鄉油車合作農場往斗六十字路(雲70線),23.751448,120.543591
443,莿桐鄉,莿桐鄉甘西村16鄰雲77線 雲156線交叉路,23.7509386,120.4795803
444,莿桐鄉,莿桐鄉新庄16鄰1~12號林素雲宅旁往莿桐北環路,,
445,莿桐鄉,莿桐鄉1鄰132號宅前(土地廟叉路),,
446,莿桐鄉,莿桐鄉雲74線大美2465號宅前叉路,23.7352972,120.5209708
447,莿桐鄉,莿桐鄉雲156線 莿桐外環,,
448,莿桐鄉,莿桐鄉9鄰張金政宅旁往三汴頭十字路,,
449,莿桐鄉,莿桐鄉四合村19鄭永基2413號陳文祥宅旁巷,23.777328,120.5289
450,莿桐鄉,莿桐鄉六合村新興29號前路,23.7614464,120.614531
451,莿桐鄉,莿桐鄉雲154線18鄰224號叉路,23.7769338,120.5394232
452,莿桐鄉,莿桐鄉湖內鎮華宮旁十字路,23.7779793,120.5625765
453,莿桐鄉,莿桐鄉雲156線 饒平西路十字路,23.7795297,120.5133012
454,莿桐鄉,莿桐鄉興中部落雲51線交叉路,23.7269302,120.4885251
455,莿桐鄉,莿桐鄉甘西村雲49線 雲48線路,,
456,莿桐鄉,莿桐鄉莿桐村中正路 埔子路,,
457,莿桐鄉,莿桐鄉五華村154線新興路 建治路,,
458,莿桐鄉,莿桐鄉五華村建治路 湖內路受正宮前路,23.779683,120.561998
459,莿桐鄉,莿桐鄉興桐村新莊86號旁路,23.769746,120.500877
460,莿桐鄉,莿桐鄉興桐村新莊72號前路,23.769746,120.500877
461,莿桐鄉,莿桐鄉興桐村新莊441號旁路,23.769746,120.500877
462,莿桐鄉,莿桐鄉義和村和平路12號旁路,23.7588831,120.5015869
463,莿桐鄉,莿桐鄉大美村溪美54號前路,23.7406446,120.5107866
464,莿桐鄉,莿桐鄉四合村后埔路百姓祠牌樓路,,
465,莿桐鄉,莿桐鄉五華村新華路261號前路,,
466,莿桐鄉,莿桐鄉延平路 南安路,23.755428,120.4968453
467,莿桐鄉,莿桐鄉台一丁線 溪美路,23.7402364,120.510956
468,莿桐鄉,莿桐鄉四合村聖母宮旁路,23.7762224,120.5331332
469,莿桐鄉,莿桐鄉興桐村振興743號旁路,23.77063,120.503601
470,莿桐鄉,莿桐鄉雲154甲線饒平國小前,23.7776286,120.5215856
471,莿桐鄉,莿桐鄉興桐村新莊222號前彎道,23.769746,120.500877
472,莿桐鄉,莿桐鄉麻園村雲154甲線 鹿場課圳路,,
473,莿桐鄉,莿桐鄉饒平村154乙線金鼎獎文具店前路,,
474,斗南鎮,斗南鎮忠孝路 新生三路（斗南所福德陸橋）,23.6745454,120.4858057
475,斗南鎮,斗南鎮雲158線 西伯路,23.6397583,120.4710007
476,斗南鎮,斗南鎮大業路 大同路,23.6946785,120.4640334
477,斗南鎮,斗南鎮大業路 延平路一段路,23.6936514,120.479821
478,斗南鎮,斗南鎮建國路 大同路,23.6825299,120.4732925
479,斗南鎮,斗南鎮建國三路 延平路二段路,23.6673984,120.4752951
480,斗南鎮,斗南鎮大業路 國道1號交流道匣道口1、2,23.6937971,120.4697926
481,斗南鎮,斗南鎮新生三路 長榮路,23.6693823,120.4819213
482,斗南鎮,斗南鎮延平文昌路,23.6798726,120.4808815
483,斗南鎮,斗南鎮建國二路 中興路,23.6777039,120.4692219
484,斗南鎮,斗南鎮田頭路137號前Y字路,23.7004471,120.4916061
485,斗南鎮,斗南鎮延平路 光華路,23.685778,120.4805794
486,斗南鎮,斗南鎮新崙里新崙中路 158甲線路,23.6769335,120.432937
487,斗南鎮,斗南鎮延平路二段 南昌路,23.6730787,120.4761319
488,斗南鎮,斗南鎮長安路、中正路、中興三叉路,23.6761207,120.4737497
489,斗南鎮,斗南鎮阿丹里阿丹路 雲158乙線路,23.6501046,120.5047738
490,斗南鎮,斗南鎮南生路 中和路,23.6419722,120.4820394
491,斗南鎮,斗南鎮台1線延平路 台1丁光華路,23.685778,120.4805794
492,斗南鎮,斗南鎮台1線延平路 光興路,23.6892281,120.4801442
493,斗南鎮,斗南鎮中山路 南昌路（火車站前）,23.6729716,120.4808406
494,斗南鎮,斗南鎮舊社里忠孝路 利台街,23.6717846,120.4906354
495,斗南鎮,斗南鎮新莒光街地下道,23.6698396,120.4775187
496,斗南鎮,斗南鎮南昌西路 長安路,23.6713294,120.4745415
497,斗南鎮,斗南鎮善功橋將軍往烏瓦路,23.6875375,120.5006552
498,斗南鎮,斗南鎮溝心新崙中路,23.6769799,120.43293
499,斗南鎮,斗南鎮延平路2段 中山路,23.678167,120.4778185
500,斗南鎮,斗南鎮石溪里石龜火車站前 兩側道路,23.6395548,120.47104
501,斗南鎮,斗南鎮西伯里土地公廟前,23.6875375,120.5006552
502,斗南鎮,斗南鎮建國一路 延平路二段口,23.6769799,120.43293
503,斗南鎮,斗南鎮二重溝32號,23.678167,120.4778185
504,斗南鎮,斗南鎮紅瓦窯236號,23.6395548,120.47104
505,斗南鎮,斗南鎮明昌里明昌路 新興街,23.6747523,120.4708698
506,斗南鎮,斗南鎮南昌理文元街 順安街,23.6754108,120.47774
507,斗南鎮,斗南鎮台一線 雲科路,23.7056554,120.4840583
508,斗南鎮,斗南鎮大同路 小東橋北側防汛道路,23.6838098,120.4725878
509,斗南鎮,斗南鎮文昌路 永安街,23.6784057,120.4820833
510,斗南鎮,斗南鎮中山路 文元街,23.6756563,120.4790323
511,斗南鎮,斗南鎮民生路 三和街,23.6719335,120.4787263
512,斗南鎮,斗南鎮順安街 南昌街,23.6731266,120.4779485
513,斗南鎮,斗南鎮大同路 文昌路,23.6794405,120.4747921
514,斗南鎮,斗南鎮新南里菁埔路 南勢910號前十字路,,
515,斗南鎮,斗南鎮林子里信義路 台榮路,,
516,斗南鎮,斗南鎮台一線 雲科路,23.7056554,120.4840583
517,斗南鎮,斗南鎮西伯里西伯187號前路,23.683727,120.434933
518,斗南鎮,斗南鎮埤麻西路 西伯里131號旁,23.6862694,120.447827
519,斗南鎮,斗南鎮文安路 正福路,23.6920155,120.4840972
520,斗南鎮,斗南鎮中興路 中昌路,23.6779543,120.4648371
521,斗南鎮,斗南鎮光天路65巷 四維路245巷(往華興橋),23.6398365,120.4852734
522,斗南鎮,斗南鎮延平路 大成路,23.6752205,120.4763196
523,斗南鎮,斗南鎮石溪里四維路420巷 復興路,23.6376525,120.4799255
524,斗南鎮,斗南鎮埤麻里新厝路332號旁路,23.6798196,120.4531999
525,斗南鎮,斗南鎮延平路二段 長安路二段口,23.6710846,120.4758221
526,斗南鎮,斗南鎮建國一路 文化街,23.683628,120.4782241
527,斗南鎮,斗南鎮台一線 四維路,23.6399088,120.4836757
528,斗南鎮,斗南鎮西伯里154號前路,23.6900416,120.465857
529,斗南鎮,斗南鎮阿丹里蓮芳路 泰山路,23.645451,120.5003988
530,斗南鎮,斗南鎮田頭里田頭路、田興路 後庄路,24.192386,120.681999
531,斗南鎮,斗南鎮新崙里土庫大橋東端路,23.6815608,120.4179805
532,斗南鎮,斗南鎮東明里成功路 雲林路,23.6740069,120.5035079
533,斗南鎮,斗南鎮大東里大東活動中心前三岔路,23.6842831,120.461188
534,斗南鎮,斗南鎮舊社里信義路 新生三路,23.6668124,120.480772
535,斗南鎮,斗南鎮小東里大同路 小東中路,23.6918128,120.4673174
536,斗南鎮,斗南鎮石溪里中和路 四維路,23.6399036,120.4830753
537,斗南鎮,斗南鎮明昌里明昌路 建國二路,23.6744994,120.4692504
538,斗南鎮,斗南鎮延平路二段 大同路,23.6768617,120.4762666
539,斗南鎮,斗南鎮158甲線 將軍17之7巷,23.6756286,120.4783002
540,斗南鎮,斗南鎮建國三路 南昌西路,23.668287,120.471589
541,斗南鎮,斗南鎮雲96線 中昌路,23.6738753,120.4648897
542,大埤鄉,大埤鄉台1線 尚義路,23.6310247,120.4644454
543,大埤鄉,大埤鄉157線 南昌西路,23.6645889,120.4669426
544,大埤鄉,大埤鄉157線 大德路排樓前,23.6334429,120.4256962
545,大埤鄉,大埤鄉浮潭 仁和路,23.6615571,120.4245328
546,大埤鄉,大埤鄉豐崗村十字路,23.6702591,120.4199187
547,大埤鄉,大埤鄉南和村尼姑庵外環道,23.643452,120.414806
548,大埤鄉,大埤鄉三結村頂埤東西向下,23.667759,120.44902
549,大埤鄉,大埤鄉怡然村舊庄國小前路,23.6332349,120.4016333
550,大埤鄉,大埤鄉聯美路 聯豐路,23.6499348,120.3989045
551,大埤鄉,大埤鄉173線 157線游東橋,23.6252599,120.406547
552,大埤鄉,大埤鄉大埤農會前路,23.645492,120.4322489
553,大埤鄉,大埤鄉南和村北門 中正路,23.6452988,120.4281964
554,大埤鄉,大埤鄉興安村興安122號前路,23.627154,120.393797
555,大埤鄉,大埤鄉松竹守望相助隊前,,
556,大埤鄉,大埤鄉豐崗守望相助隊前,,
557,大埤鄉,大埤鄉嘉興村外環道 尚義村路,23.637872,120.449655
558,大埤鄉,大埤鄉嘉興村西門將爺廟前 嘉興路橋前,23.6493367,120.4538497
559,大埤鄉,大埤鄉嘉興村北門將爺廟前路,23.6493367,120.4538497
560,大埤鄉,大埤鄉嘉興村北邊往豐田村路,23.655273,120.465286
561,大埤鄉,大埤鄉嘉興村台1線往嘉興村路（近路）,23.6470316,120.4591354
562,大埤鄉,大埤鄉台1線 嘉興東路,23.642981,120.47028
563,大埤鄉,大埤鄉嘉興村197號宅前,23.6527969,120.445921
564,大埤鄉,大埤鄉嘉興路 嘉興東路90巷,23.6453353,120.4617927
565,大埤鄉,大埤鄉豐興活動中心 變電所T字路,23.644265,120.464959
566,大埤鄉,大埤鄉嘉興村真武宮前,23.6429892,120.4637739
567,大埤鄉,大埤鄉台1線 雲78線路,23.6589248,120.4724708
568,大埤鄉,大埤鄉聯美村聯美大橋橋頭處,23.6565138,120.3970203
569,大埤鄉,大埤鄉延平路三段 大埤路,23.6616461,120.4742085
570,大埤鄉,大埤鄉台1線 尚義路（石龜溪橋北端）,23.6310247,120.4644454
571,大埤鄉,大埤鄉松竹村松西159號南端善諸橋（雲嘉交界）,23.6630023,120.4709084
572,大埤鄉,大埤鄉怡然村三民路 怡美路（怡美所前）,23.6371551,120.4041903
573,大埤鄉,大埤鄉三結村埤頭三和路,23.6793592,120.3929471
574,大埤鄉,大埤鄉松竹村松東高速公路跨越橋,,
575,大埤鄉,大埤鄉豐田村157線 成功廟前路,23.65841,120.4598844
576,大埤鄉,大埤鄉豐田村豐田13號前路,23.65841,120.4598844
577,大埤鄉,大埤鄉聯美村聯怡路 聯美路,23.6474873,120.3994396
578,大埤鄉,大埤鄉興安村興安1之26號前路,23.6249811,120.3955876
579,大埤鄉,大埤鄉西鎮村雲174線水牛潭旁路,,
580,大埤鄉,大埤鄉興安村興安68之2號前路,23.627154,120.393797
581,大埤鄉,大埤鄉西鎮村延潭大排水仙王前路,,
582,大埤鄉,大埤鄉大埤路 三和路,23.6613105,120.4724124
583,大埤鄉,大埤鄉西鎮村西鎮2之1號旁路,23.6210212,120.3810199
584,大埤鄉,大埤鄉北鎮村後庄三叉路,23.6372268,120.3910484
585,古坑鄉,古坑鄉棋盤村棋山部落路,23.6860804,120.6034716
586,古坑鄉,古坑鄉棋盤村棋山100號三叉路,23.6860804,120.6034716
587,古坑鄉,古坑鄉22鄰73號三叉路,23.5721842,120.5474415
588,古坑鄉,古坑鄉棋山斗六大圳8號橋路,,
589,古坑鄉,古坑鄉興東路,23.611412,120.537264
590,古坑鄉,古坑鄉興園南天宮路,23.6884871,120.6083028
591,古坑鄉,古坑鄉興園48號路,23.6883833,120.6096107
592,古坑鄉,古坑鄉新厝51號路,23.689397,120.617886
593,古坑鄉,古坑鄉新厝斗六大圳7號橋頭,,
594,古坑鄉,古坑鄉197線 201線路,23.6733028,120.5825299
595,古坑鄉,古坑鄉197線 200線路,23.6733028,120.5825299
596,古坑鄉,古坑鄉水碓地母廟三叉路,23.6786669,120.5741614
597,古坑鄉,古坑鄉荷包厝天聖宮前拱門,23.6485964,120.6154197
598,古坑鄉,古坑鄉149甲線三角圓環,,
599,古坑鄉,古坑鄉崁腳台3線雲祥橋北端,23.6160804,120.5431778
600,古坑鄉,古坑鄉台3線 綠色隧道口,23.6547746,120.5433655
601,古坑鄉,古坑鄉158甲線 舊台3線路,23.6703553,120.5379899
602,古坑鄉,古坑鄉雲199 雲210路（劍湖山）,23.6179471,120.5783324
603,古坑鄉,古坑鄉草嶺149線30K福德宮前,23.6816872,120.5652865
604,古坑鄉,古坑鄉草嶺石壁往豐山三叉路,23.5913889,120.685
605,古坑鄉,古坑鄉草嶺村制高點,23.583963,120.695804
606,古坑鄉,古坑鄉新?村雲312線、廣濟路、雲216線交叉路,23.6822211,120.5694449
607,古坑鄉,古坑鄉新?村雲215線、廣濟路交叉路,23.6822211,120.5694449
608,古坑鄉,古坑鄉新?村新光國小前近雲215線路,23.6868399,120.586394
609,古坑鄉,古坑鄉新?村71號宅前路,23.6466411,120.5969758
610,古坑鄉,古坑鄉文化路廣濟路(南端),23.6831131,120.5696961
611,古坑鄉,古坑鄉新?村重光路、廣濟路 新?橋路,23.6855841,120.570123
612,古坑鄉,古坑鄉新?村重光路、廣濟路 新?橋路,23.6855841,120.570123
613,古坑鄉,古坑鄉荷苞厝93號149甲 雲200線路,23.6677651,120.5605662
614,古坑鄉,古坑鄉新?村廣濟路、文化路12巷,23.6831131,120.5696961
615,古坑鄉,古坑鄉新?村、雲149甲線路,23.6733028,120.5825299
616,古坑鄉,古坑鄉文化路、廣濟路(北端),23.6831131,120.5696961
617,古坑鄉,古坑鄉梅?路、雲213線路,23.6677651,120.5605662
618,古坑鄉,古坑鄉麻園村平和1號路,23.6321193,120.5238965
619,古坑鄉,古坑鄉麻園村平和2號路,23.6330383,120.5231125
620,古坑鄉,古坑鄉麻園村中和8號路,23.640298,120.482311
621,古坑鄉,古坑鄉麻園村中洲29號路,23.6279409,120.5127511
622,古坑鄉,古坑鄉麻園村中洲53號路,23.6279409,120.5127511
623,古坑鄉,古坑鄉麻園村東耕18號路,23.6408499,120.535453
624,古坑鄉,古坑鄉麻園村32號路.,23.6376902,120.5426805
625,古坑鄉,古坑鄉樺樟湖國小,23.6041531,120.6318677
626,古坑鄉,古坑鄉新生路 西平路,23.647238,120.5590838
627,古坑鄉,古坑鄉149甲 文化路,23.6888564,120.5649599
628,古坑鄉,古坑鄉永興路 光興路,23.6241382,120.5498767
629,古坑鄉,古坑鄉華山區雲149線 210線路（新中路）,23.6703553,120.5379899
630,古坑鄉,古坑鄉中山路 中正路,23.6447543,120.5620933
631,古坑鄉,古坑鄉雲208線 149公路（華南路）,23.6701366,120.5373203
632,古坑鄉,古坑鄉麻園村東耕42號前（158乙線 雲194）,23.638676,120.532377
633,古坑鄉,古坑鄉永光台3線158乙線路,,
634,古坑鄉,古坑鄉東和村長安文化路139號路,23.711178,120.5500848
635,古坑鄉,古坑鄉古坑鄉草嶺村內湖往石壁路,23.60664,120.7093919
636,古坑鄉,古坑鄉桂林村桃源149甲線路,23.6545619,120.6588683
637,古坑鄉,古坑鄉台3線 興昌國小路,23.611412,120.537264
638,古坑鄉,古坑鄉高林村廣濟路地母宮前路,23.6822211,120.5694449
639,古坑鄉,古坑鄉雲194線 麻園16號前路,23.6115143,120.5377581
640,古坑鄉,古坑鄉東和村文化路13950號旁路,23.6844618,120.5682363
641,古坑鄉,古坑鄉台3線 158甲線路,23.6703553,120.5379899
642,古坑鄉,古坑鄉高林村廣濟路地母宮前路,23.6822211,120.5694449
643,古坑鄉,古坑鄉旗山斗六大圳8號橋路,,
644,古坑鄉,古坑鄉中山路 中華路,23.6424889,120.5616829
645,古坑鄉,古坑鄉中山路 西平路,23.6466989,120.5611034
646,古坑鄉,古坑鄉文淵路 朝陽路,23.6460618,120.5642015
647,古坑鄉,古坑鄉中山路 雲193線（往溪州）路,,
648,古坑鄉,古坑鄉中華路 文淵路,23.6426196,120.5635677
649,古坑鄉,古坑鄉文昌路 154乙線路,,
650,古坑鄉,古坑鄉國道三號古坑交流道東側匝道路,,
651,虎尾鎮,虎尾鎮光復路 文科路,23.7171104,120.4239487
652,虎尾鎮,虎尾鎮林森路 公安路,23.7089989,120.4331665
653,虎尾鎮,虎尾鎮博愛路 文科路,23.7192479,120.4362874
654,虎尾鎮,虎尾鎮145線廣雲宮前,23.6807805,120.405116
655,虎尾鎮,虎尾鎮下溪里雲76線福德宮前,23.7176643,120.4706692
656,虎尾鎮,虎尾鎮下溪里雲71線 大庄路,23.7127268,120.4592993
657,虎尾鎮,虎尾鎮林森路二段 文化路,23.7051245,120.4291238
658,虎尾鎮,虎尾鎮中正路 德興路,23.7076553,120.4323172
659,虎尾鎮,虎尾鎮中正路 中山路,23.708402,120.4340583
660,虎尾鎮,虎尾鎮雲林地方法院檢察署,23.7153031,120.4330678
661,虎尾鎮,虎尾鎮光復、新生、光明 弘道路,,
662,虎尾鎮,虎尾鎮雲78線虎尾 土庫交流道匣道路,23.6909327,120.3865852
663,虎尾鎮,虎尾鎮延平里下湳100號(雲林肉品市場),23.68228,120.41399
664,虎尾鎮,虎尾鎮穎川里1604號前,23.695227,120.419165
665,虎尾鎮,虎尾鎮穎川里頂湳1055號前,23.695227,120.419165
666,虎尾鎮,虎尾鎮雲145線 頂湳路交叉路,,
667,虎尾鎮,虎尾鎮145公路、虎興北路 永興北路三路,23.7429371,120.4207801
668,虎尾鎮,虎尾鎮台一線 74線路（台一線南北向）,23.707516,120.435886
669,虎尾鎮,虎尾鎮文化路 防汛道路（興南大橋）,,
670,虎尾鎮,虎尾鎮雲158線文科路 雲92線光復路,23.7171104,120.4239487
671,虎尾鎮,虎尾鎮興南里興南橋南端中華特區,23.6974773,120.4332368
672,虎尾鎮,虎尾鎮雲158線光復路 雲73之1線路（往青埔）,23.705353,120.454497
673,虎尾鎮,虎尾鎮興南里582號前路,23.693421,120.441392
674,虎尾鎮,虎尾鎮雲158線 雲97線十字路（西屯里 往海墘厝）,,
675,虎尾鎮,虎尾鎮長春、八德路 ,23.7006108,120.4286499
676,虎尾鎮,虎尾鎮雲158公路（文科路 空軍基地前路） ,23.7005881,120.3344649
677,虎尾鎮,虎尾鎮林森、光復路 ,23.7104962,120.4350697
678,虎尾鎮,虎尾鎮廉使里158線廉使國小旁T字路,23.7165675,120.4207594
679,虎尾鎮,虎尾鎮安溪里安溪79號前路,23.722176,120.4426766
680,虎尾鎮,虎尾鎮平和里雲731線 防汛道路（武聖宮旁）,,
681,虎尾鎮,虎尾鎮158公路 西屯路,,
682,虎尾鎮,虎尾鎮廉使里雲92線廉使1645號前T字路,23.7165675,120.4207594
683,虎尾鎮,虎尾鎮廉使里雲92線171號旁路,23.718161,120.4291386
684,虎尾鎮,虎尾鎮廉使里廉使923號前路,23.7203035,120.4197903
685,虎尾鎮,虎尾鎮惠來里惠來路76之20號旁（雲74線）,23.7306243,120.4960193
686,虎尾鎮,虎尾鎮惠來里台一線 宗岳寮路176之20號旁（雲74線）,,
687,虎尾鎮,虎尾鎮惠來里惠來路30之9號（雲74 雲77線）,23.73394,120.492336
688,虎尾鎮,虎尾鎮惠來里惠來路2001號前（台1線 雲76線）,23.7292381,120.4925149
689,虎尾鎮,虎尾鎮圓環（光復、信義、中正）,23.709831,120.4378219
690,虎尾鎮,虎尾鎮雲74公路往堀頭里路,23.7163517,120.4578406
691,虎尾鎮,虎尾鎮芳草里活動中心前道路 雲158線路,23.7010952,120.380198
692,虎尾鎮,虎尾鎮林森路 工專路,23.7022681,120.4251558
693,虎尾鎮,虎尾鎮青雲路（雲92）帥興宮前轉彎處,23.72514,120.434533
694,虎尾鎮,虎尾鎮安溪里安溪126號前路,23.7215201,120.4426127
695,虎尾鎮,虎尾鎮雲158線 雲95路（代天宮）,23.7349847,120.4272968
696,虎尾鎮,虎尾鎮德興里德興路 復興路,23.7090509,120.4316255
697,虎尾鎮,虎尾鎮德興里北平路 西平路,23.7116733,120.4290652
698,虎尾鎮,虎尾鎮德興里北平路159號前路,23.7095972,120.427447
699,虎尾鎮,虎尾鎮德興里復興路102號前路,23.708852,120.4293624
700,虎尾鎮,虎尾鎮公安里富邦大樓前路,23.7118944,120.4342815
701,虎尾鎮,虎尾鎮林森路一段 民族路,23.7125481,120.4368124
702,虎尾鎮,虎尾鎮中山路 民主路,23.7042012,120.4362278
703,虎尾鎮,虎尾鎮145公路 安溪1822號路,23.7049309,120.4597664
704,虎尾鎮,虎尾鎮雲145公路 雲74公路,23.6913215,120.4087199
705,虎尾鎮,虎尾鎮145乙線 雲71線路,23.7269876,120.4885458
706,虎尾鎮,虎尾鎮雲158線西屯里萊爾富商店前路,23.7036542,120.3866695
707,虎尾鎮,虎尾鎮清雲路 建成路,23.7291736,120.4327536
708,虎尾鎮,虎尾鎮145乙線 清雲路,23.7317717,120.4320678
709,虎尾鎮,虎尾鎮文科路 東明路,23.7121802,120.4442436
710,虎尾鎮,虎尾鎮光復路 大庄路,23.708303,120.44849
711,虎尾鎮,虎尾鎮145線 145乙線路,23.6909824,120.4119944
712,虎尾鎮,虎尾鎮復興路 立德路,23.7047263,120.4244563
713,虎尾鎮,虎尾鎮中溪里雲74公路 雲71公路,23.7045093,120.4596317
714,虎尾鎮,虎尾鎮民主路 文化路五叉路,23.7017174,120.4307972
715,虎尾鎮,虎尾鎮林森路一段 文科路,23.7173696,120.4410556
716,虎尾鎮,虎尾鎮永安街 西安街,23.7053675,120.4332741
717,虎尾鎮,虎尾鎮頂溪里雲74線 雲75線路,23.7040537,120.4302154
718,虎尾鎮,虎尾鎮東義路 三民路,23.7109989,120.440173
719,虎尾鎮,虎尾鎮福民路 正義路,23.7040537,120.4302154
720,虎尾鎮,虎尾鎮東明路 弘道路,23.7109989,120.440173
721,虎尾鎮,虎尾鎮民族路 中華路,23.7117548,120.4390514
722,虎尾鎮,虎尾鎮建成路 學府西路,23.7288749,120.4200208
723,虎尾鎮,虎尾鎮學府路 學府西路,23.735598,120.4198129
724,虎尾鎮,虎尾鎮站前東路 大隆路,23.7337883,120.4173449
725,虎尾鎮,虎尾鎮站前西路 大隆路,23.7351415,120.41346
726,虎尾鎮,虎尾鎮科園路 建成路,23.7315755,120.4091753
727,虎尾鎮,虎尾鎮科園路 學府一路,23.7397022,120.4122945
728,虎尾鎮,虎尾鎮復興路 忠孝路,23.7071418,120.427547
729,虎尾鎮,虎尾鎮崛頭里崛頭86之1號(崛頭里活動中心)前路,23.7176189,120.4487252
730,虎尾鎮,虎尾鎮光復路 水源一路,23.7117832,120.4327734
731,虎尾鎮,虎尾鎮林森路二段 林森路二段477巷,23.6980335,120.425698
732,虎尾鎮,虎尾鎮建國里建國一村290號前路,23.714891,120.423445
733,虎尾鎮,虎尾鎮145乙線 中山高東側往西園路,23.7399541,120.4710773
734,虎尾鎮,虎尾鎮虎興南路 永興路,23.7239156,120.4116252
735,虎尾鎮,虎尾鎮光復路 建國一村口,23.7097992,120.4412196
736,虎尾鎮,虎尾鎮雲158線 建國二村口,23.7119389,120.4036975
737,虎尾鎮,虎尾鎮N9無名橋旁建國二村口,,
738,虎尾鎮,虎尾鎮站前東路 學府路,23.7358302,120.4181347
739,虎尾鎮,虎尾鎮站前東路 學府一路,23.737625,120.4188047
740,虎尾鎮,虎尾鎮虎興南路 永興路(西側),23.7239156,120.4116252
741,虎尾鎮,虎尾鎮平和里平和45之18號旁路,23.7045739,120.4550243
742,土庫鎮,土庫鎮林森路 聯美路,23.6705557,120.3898663
743,土庫鎮,土庫鎮158甲 雲97路,23.6842227,120.3884661
744,土庫鎮,土庫鎮雲78線土庫、石廟交流道匣道路(DVS1),,
745,土庫鎮,土庫鎮雲78線土庫、石廟交流道匣道路(DVS2),,
746,土庫鎮,土庫鎮雲145線 綺湖鎮湖府牌樓 ,23.665418,120.357064
747,土庫鎮,土庫鎮雲160線 秀潭7之2號前十字路,23.6567751,120.3495773
748,土庫鎮,土庫鎮雲160線 秀潭10號旁十字路,23.6567751,120.3495773
749,土庫鎮,土庫鎮雲145線 雲101線丁字路 ,23.675794,120.3910126
750,土庫鎮,土庫鎮雲145線 秀潭保生宮牌樓前丁字路,23.6544568,120.3495205
751,土庫鎮,土庫鎮建國路 林森路,23.6792169,120.3953352
752,土庫鎮,土庫鎮馬光路 光榮路一段路（雲158線外環道）,23.7007681,120.3644618
753,土庫鎮,土庫鎮145線 160線路,23.675794,120.3910126
754,土庫鎮,土庫鎮雲158線光榮路 和平路,23.7010998,120.3569556
755,土庫鎮,土庫鎮建國路 光明路（土庫所）,23.6788774,120.3931547
756,土庫鎮,土庫鎮宮北里建仁街 建功街,23.6803164,120.3939828
757,土庫鎮,土庫鎮越港里林森路 大同路,23.6764434,120.3956823
758,土庫鎮,土庫鎮越港里林森路 成功路,23.6733749,120.3955375
759,土庫鎮,土庫鎮石廟里公園路 公園路99巷,23.6857155,120.3928147
760,土庫鎮,土庫鎮石廟里中興路 興國街,23.6858297,120.3910378
761,土庫鎮,土庫鎮圓環（光明、中山、中正、光復路）,23.672919,120.389139
762,土庫鎮,土庫鎮雲145線 新興路,23.6638958,120.3739366
763,土庫鎮,土庫鎮奮起里綺湖81號,23.665418,120.357064
764,土庫鎮,土庫鎮奮起里綺湖31號,23.665418,120.357064
765,土庫鎮,土庫鎮奮起里551號,23.665418,120.357064
766,土庫鎮,土庫鎮宮北里建功街65號前,23.6803608,120.394494
767,土庫鎮,土庫鎮雲158線 民族路,23.7038801,120.3684503
768,土庫鎮,土庫鎮雲158甲線 雲98線頂寮路,23.693101,120.345633
769,土庫鎮,土庫鎮後埔里雲99線 158甲路,23.6998253,120.3711472
770,土庫鎮,土庫鎮中興路 復興路,23.6821811,120.3902072
771,土庫鎮,土庫鎮光復路 文化路,23.6766859,120.3855906
772,土庫鎮,土庫鎮崙內里崙內97號旁路,23.6852827,120.3586176
773,土庫鎮,土庫鎮新庄里雲101線 雲88線路,23.677015,120.391086
774,土庫鎮,土庫鎮民權路 信義街,23.7074502,120.3498381
775,褒忠鄉,褒忠鄉台19線 王厝路,23.7356615,120.3449636
776,褒忠鄉,褒忠鄉中正路 泰安路,23.692059,120.2989907
777,褒忠鄉,褒忠鄉台19線 158線公路,23.7005881,120.3344649
778,褒忠鄉,褒忠鄉台19公路 158甲,23.7005881,120.3344649
779,褒忠鄉,褒忠鄉中正路 三民路 ,23.6950886,120.3130219
780,褒忠鄉,褒忠鄉雲158甲線 雲9線路（龍岩派出所旁）,23.691007,120.3037335
781,褒忠鄉,褒忠鄉中正 中勝、中民路（分駐所旁）,23.692145,120.3102148
782,褒忠鄉,褒忠鄉中民路 三民路,23.6931187,120.310421
783,褒忠鄉,褒忠鄉中勝路褒忠國小前,23.7004214,120.3101812
784,褒忠鄉,褒忠鄉158甲線 有才村路,23.722232,120.287292
785,褒忠鄉,褒忠鄉馬鳴村鎮安路鎮安宮前路,23.6996743,120.2782537
786,元長鄉,元長鄉新台19線 舊台19線路,23.6289634,120.3110418
787,元長鄉,元長鄉新台19線 舊台19線路,23.6289634,120.3110418
788,元長鄉,元長鄉山內村台19線T字路,23.672391,120.3139845
789,元長鄉,元長鄉西?社區台19線T字路,23.6289634,120.3110418
790,元長鄉,元長鄉元長工業區雲145線 興工1街路,23.613597,120.333303
791,元長鄉,元長鄉元長工業區雲145線 興工2街路,23.613597,120.333303
792,元長鄉,元長鄉雲78線元長、褒忠交流道匣道路(DVS1),,
793,元長鄉,元長鄉雲78線元長、褒忠交流道匣道路(DVS2),,
794,元長鄉,元長鄉台19線 龍岩路,23.6216154,120.3179564
795,元長鄉,元長鄉145公路東興路 東庄路,23.619768,120.334422
796,元長鄉,元長鄉台19線中山路 元東路,23.6520105,120.3131797
797,元長鄉,元長鄉防汛道路鹿北竹圍段路,23.647808,120.377815
798,元長鄉,元長鄉中山路 元南路,23.6471345,120.3131882
799,元長鄉,元長鄉內寮村仁德國小,23.617637,120.351505
800,元長鄉,元長鄉雲160公路 外環道路,23.651875,120.3072661
801,元長鄉,元長鄉145公路 客厝路,23.6284389,120.3346405
802,元長鄉,元長鄉瓦?北安路20號 北興路,23.644376,120.3644501
803,元長鄉,元長鄉145線 卓運村路,23.641383,120.348781
804,元長鄉,元長鄉145甲線 雲168線路,23.6866962,120.3239142
805,元長鄉,元長鄉145線 下寮村湖內路,23.6089351,120.3267272
806,元長鄉,元長鄉中山路 台19線外環道南端路,23.6439315,120.3125998
807,西螺鎮,西螺鎮舊西螺大橋南端,23.8051975,120.4597547
808,西螺鎮,西螺鎮台1線 埤頭路,23.845787,120.458677
809,西螺鎮,西螺鎮平和路 興農西路,23.7924321,120.4553925
810,西螺鎮,西螺鎮光復東路 興農西路,23.7923274,120.452488
811,西螺鎮,西螺鎮延平路 福來路,23.7998303,120.4501352
812,西螺鎮,西螺鎮西崙路 埔心路,23.7978965,120.4405626
813,西螺鎮,西螺鎮大新里新宅2號前,23.784371,120.502368
814,西螺鎮,西螺鎮延平路 福來路,23.7998303,120.4501352
815,西螺鎮,西螺鎮延平路 建興路,23.8010598,120.4592208
816,西螺鎮,西螺鎮公正一路 光復西路,23.7969369,120.4622368
817,西螺鎮,西螺鎮145線 慈愛醫院招牌路,23.781431,120.441177
818,西螺鎮,西螺鎮公?里156線 雲71叉路,23.7995011,120.455277
819,西螺鎮,西螺鎮新安里新興路 平和路,23.7893553,120.4526193
820,西螺鎮,西螺鎮福田里雲154甲 雲154（西螺外環道）交岔路,23.7885513,120.4402067
821,西螺鎮,西螺鎮東興里27號宅前路,23.770128,120.477269
822,西螺鎮,西螺鎮東興里5號宅前路,23.711976,120.441111
823,西螺鎮,西螺鎮東興里47號宅前路,23.7672265,120.4732056
824,西螺鎮,西螺鎮東興里362號宅前路,23.770128,120.477269
825,西螺鎮,西螺鎮台一線大同路 振興路,23.7993715,120.4657132
826,西螺鎮,西螺鎮七座里46號 601號路(長山宮前),23.7537988,120.4439796
827,西螺鎮,西螺鎮七座里雲40線、七座里55之1號宅前,23.8001331,120.459338
828,西螺鎮,西螺鎮七座里95號宅前路,23.7572487,120.4438112
829,西螺鎮,西螺鎮七座里85號宅前路,23.755994,120.4442089
830,西螺鎮,西螺鎮國道1號 台1線交流道匣道口(DVS1),,
831,西螺鎮,西螺鎮國道1號 台1線交流道匣道口(DVS2),,
832,西螺鎮,西螺鎮台1線 大同路,23.7902295,120.4705988
833,西螺鎮,西螺鎮吳厝雲156線 雲145線路,,
834,西螺鎮,西螺鎮市場南路 台一線路,23.7822123,120.457685
835,西螺鎮,西螺鎮平和南路、西興路、八德街交會處,23.794616,120.4543217
836,西螺鎮,西螺鎮建興路 中山路,23.8000339,120.4592134
837,西螺鎮,西螺鎮雲三十七線（延平路） 埔心路,23.7993393,120.4467184
838,西螺鎮,西螺鎮定安里定安29號前埔心社區公園 ,23.798199,120.4414369
839,西螺鎮,西螺鎮興農西路 埔心路,23.7939195,120.4619789
840,西螺鎮,西螺鎮華北路溝仔媽祖廟前,23.7972059,120.464692
841,西螺鎮,西螺鎮詔安里26之3號拱興宮前T字路,23.8019038,120.4435139
842,西螺鎮,西螺鎮安定里171之8號前T字路,23.7979835,120.4570888
843,西螺鎮,西螺鎮福田里活動中心前T字路,23.7977441,120.465647
844,西螺鎮,西螺鎮新豐里145線 市場南路 ,23.7818215,120.445972
845,西螺鎮,西螺鎮雲145線 市場北路 ,23.7831794,120.4479385
846,西螺鎮,西螺鎮雲145線51號前路 ,23.7995011,120.455277
847,西螺鎮,西螺鎮雲145線 新社路,23.7835744,120.4463162
848,西螺鎮,西螺鎮新安里141號前十字路,23.7853961,120.4573659
849,西螺鎮,西螺鎮新安里新興路444號叉路,23.7883807,120.4525741
850,西螺鎮,西螺鎮新安里新興路478號前叉路 ,23.7872937,120.4526255
851,西螺鎮,西螺鎮新安里市場北路 新興路 ,23.7847841,120.4528931
852,西螺鎮,西螺鎮新安里新社1153號前叉路 ,23.7862983,120.4501567
853,西螺鎮,西螺鎮延平路 福興路（福安宮）前,23.8012379,120.4605952
854,西螺鎮,西螺鎮興農西路 西興南路,23.792884,120.4576089
855,西螺鎮,西螺鎮文昌路 興農西路,23.7942688,120.4643296
856,西螺鎮,西螺鎮156線 雲34線(九隆里慈和宮前路),23.7464501,120.4341902
857,西螺鎮,西螺鎮九隆里(145線) 九隆路(吳厝國小前),23.751765,120.431727
858,西螺鎮,西螺鎮中山路 平和路,23.7997791,120.4584013
859,西螺鎮,西螺鎮新西螺大橋南端,23.8097235,120.4603315
860,西螺鎮,西螺鎮雲145線文和路 頂湳路,23.7699343,120.4484351
861,西螺鎮,西螺鎮大新里154線 柑桔路,23.78972,120.4864818
862,西螺鎮,西螺鎮修文路 中市路（福興宮後面）,23.8013469,120.4605772
863,西螺鎮,西螺鎮156公路鹿場震天宮前,23.7497846,120.4735264
864,西螺鎮,西螺鎮中山路 忠孝路,23.7984983,120.4489863
865,西螺鎮,西螺鎮廣興里雲43線 39線間廣興110之19號,23.7646765,120.4575543
866,西螺鎮,西螺鎮中山路 福興路（西螺所）,23.799353,120.4546871
867,西螺鎮,西螺鎮大同路 興農路（西螺所）,23.794826,120.468464
868,西螺鎮,西螺鎮廣興里雲71 雲44路（廣興國小）,23.7666551,120.458307
869,西螺鎮,西螺鎮漢光里光復西路 吉興街,23.796141,120.454173
870,西螺鎮,西螺鎮廣興里雲43 雲44路,23.7676391,120.4607109
871,西螺鎮,西螺鎮公館里三源聖濟寺前（雲71線 雲40線）,,
872,西螺鎮,西螺鎮光華里修文路 重陽街路,23.8017679,120.4579663
873,西螺鎮,西螺鎮九隆里震安宮前路(雲40線),23.7530235,120.4330875
874,西螺鎮,西螺鎮九隆里弓孝宮前路,23.7494601,120.437378
875,西螺鎮,西螺鎮福來路 平和南路,23.7888937,120.4481977
876,西螺鎮,西螺鎮新興路 興農西路,23.7923274,120.452488
877,西螺鎮,西螺鎮興農西路 公正路,23.7940261,120.4631847
878,西螺鎮,西螺鎮農會九龍辦事處路,23.7523431,120.4332474
879,西螺鎮,西螺鎮鹿場里鹿場橋北端入庄路,23.7497846,120.4735264
880,西螺鎮,西螺鎮下湳里往二崙 新厝路,23.7754877,120.4290365
881,西螺鎮,西螺鎮光復西路 大同路,23.7977309,120.466505
882,西螺鎮,西螺鎮市場南路、廣興路,23.7824984,120.4644071
883,西螺鎮,西螺鎮145線雲32線路,23.7186718,120.4321383
884,西螺鎮,西螺鎮光復西路 建興路,23.7966209,120.4593071
885,西螺鎮,西螺鎮頂湳里媽祖行宮前,23.7716535,120.4523018
886,西螺鎮,西螺鎮公館里公館橋（北端）,23.7495455,120.4559258
887,西螺鎮,西螺鎮市場北路 廣興路,23.7853003,120.4648522
888,西螺鎮,西螺鎮吳厝里156線 33線叉路,23.7267837,120.4884722
889,西螺鎮,西螺鎮福田里長辦公室路 市場北路,23.785009,120.4579606
890,西螺鎮,西螺鎮正興里光明西路 建興路,23.7949833,120.4593559
891,西螺鎮,西螺鎮新豐里福來、興農西路,23.7921358,120.4490619
892,西螺鎮,西螺鎮七座里1之2號左後方十字路,23.7568093,120.4514502
893,西螺鎮,西螺鎮社口里文興國小旁西側紅綠燈路,23.788025,120.444639
894,西螺鎮,西螺鎮吳厝里113之6號前（145 156線）路,23.7454937,120.4237168
895,西螺鎮,西螺鎮吳厝里 二崙鄉田尾107之1號前十字路,23.7454937,120.4237168
896,西螺鎮,西螺鎮吳厝里中正橋北端防迅道路旁路,23.7436955,120.4223349
897,西螺鎮,西螺鎮光華里中興、延平路,23.8007132,120.4566498
898,西螺鎮,西螺鎮鹿場里南興蒜農協會往南T字路（鹿場里南興532號前）,23.746958,120.477559
899,西螺鎮,西螺鎮福興里中市路、福興路185巷,23.8006645,120.4600121
900,西螺鎮,西螺鎮福田里154甲 市場北路,23.784946,120.4565403
901,西螺鎮,西螺鎮下湳里土地公廟前五叉路,23.76206,120.434503
902,西螺鎮,西螺鎮中山路 公正路,23.80007,120.4618764
903,西螺鎮,西螺鎮下湳里81號(活動中心)前路,23.76206,120.434503
904,西螺鎮,西螺鎮埤頭里雲43線 廣興路,23.7730641,120.4750787
905,西螺鎮,西螺鎮埤頭里雲71線 廣興391號(活動中心)前路,23.7769454,120.4635045
906,西螺鎮,西螺鎮埤頭里埤頭44號旁路,23.77475,120.4714734
907,西螺鎮,西螺鎮埤頭里藍厝115號旁路,23.7775015,120.4660919
908,西螺鎮,西螺鎮新西螺大橋(溪州大橋)南端(DVS2),23.8097235,120.4603315
909,西螺鎮,西螺鎮振興里振興35號旁路,23.7887466,120.4711471
910,西螺鎮,西螺鎮中興里東南路 南昌路,23.8024447,120.4509225
911,西螺鎮,西螺鎮大同路、延平路 大橋南路,23.801866,120.462522
912,西螺鎮,西螺鎮東南路 中興路,23.803193,120.4562476
913,西螺鎮,西螺鎮鹿場里南興30號前十字路,23.746958,120.477559
914,二崙鄉,二崙鄉中山路 中華路,23.7703344,120.4134136
915,二崙鄉,二崙鄉田尾村賜福宮前,23.7556206,120.4160976
916,二崙鄉,二崙鄉田尾村雲33線 32線交叉路,23.7710606,120.4129378
917,二崙鄉,二崙鄉田尾村犁份庄47號雲32線 雲34線叉路,23.7574702,120.4235079
918,二崙鄉,二崙鄉田尾村頂庄38號 雲33線丁路,23.762309,120.419211
919,二崙鄉,二崙鄉台19線 楊賢路,23.8173803,120.3969307
920,二崙鄉,二崙鄉崙東村仁和路民族路,23.7686404,120.4154635
921,二崙鄉,二崙鄉台19公路 154公路,23.7035836,120.4582884
922,二崙鄉,二崙鄉台19線 154線路（大同國小旁）,23.794342,120.376251
923,二崙鄉,二崙鄉油車成功路 文化路（派出所前,23.7952025,120.3901499
924,二崙鄉,二崙鄉油車村台19線40.3K 雲14路,23.791417,120.3739126
925,二崙鄉,二崙鄉崙東村中華路 民族路,23.769762,120.4150452
926,二崙鄉,二崙鄉崙東村中華路 仁和路十字路,23.7693099,120.4169391
927,二崙鄉,二崙鄉崙西村往崙背 來惠、崙西交界處,,
928,二崙鄉,二崙鄉三和村雲29 縣156十字路,,
929,二崙鄉,二崙鄉湳仔村湳子路 縣156十字路,23.7500956,120.4103946
930,二崙鄉,二崙鄉來惠村中和路往庄尾十字路,23.7637306,120.3976094
931,二崙鄉,二崙鄉復興村台19線 隆興路,23.775777,120.3633198
932,二崙鄉,二崙鄉大庄村大庄路近大庄社區活動中心,23.8058355,120.3512475
933,二崙鄉,二崙鄉庄西村洲仔田庄紅路燈(洲仔路),,
934,二崙鄉,二崙鄉定安村定安路13號前路,,
935,二崙鄉,二崙鄉大華村大華路 華北路,23.8040541,120.4083944
936,二崙鄉,二崙鄉永定村永定路永定派出所附近路,23.7967275,120.41667
937,二崙鄉,二崙鄉義庄村大華路 新庄路交叉路,23.8178578,120.4200626
938,二崙鄉,二崙鄉楊賢村楊閒活動中心前三叉路,23.81691,120.40937
939,二崙鄉,二崙鄉油車村台19線40.1公里處,23.8009725,120.3832641
940,二崙鄉,二崙鄉大同村台19線中油二崙自強加油站前,23.791128,120.3742779
941,二崙鄉,二崙鄉港後村建臺宮前十字路,23.8138789,120.396085
942,二崙鄉,二崙鄉大義村大義路天后宮路,23.7862437,120.3993751
943,二崙鄉,二崙鄉崙東村中山路 仁和路（二崙加油站前）,23.7736564,120.4177808
944,二崙鄉,二崙鄉復興村雲18線 後壁路,23.7843394,120.3763157
945,二崙鄉,二崙鄉來惠村昭安宮前三叉路,23.771822,120.3947617
946,二崙鄉,二崙鄉湳仔村雲156線 雲32線交叉路,23.7710606,120.4129378
947,二崙鄉,二崙鄉大華村大華路274號前T字路,23.7997271,120.416302
948,二崙鄉,二崙鄉台19線大同路柏林傢俱前,23.787622,120.370738
949,二崙鄉,二崙鄉庄西村公館路,23.7987071,120.3635919
950,二崙鄉,二崙鄉崙西村中正路 裕民路,23.7711803,120.4098915
951,二崙鄉,二崙鄉三和村156線 雲31線路,,
952,二崙鄉,二崙鄉三和村156線 深坑社區路,,
953,二崙鄉,二崙鄉台19線楊賢路(DVS2),23.8173803,120.3969307
954,二崙鄉,二崙鄉裕民路 民權路,23.7689401,120.4087657
955,二崙鄉,二崙鄉仁和路 民生路,23.7672635,120.4095441
956,二崙鄉,二崙鄉復興村台19線外環路,23.7186718,120.4321383
957,二崙鄉,二崙鄉義庄村雲24線3.5公里處旁路,23.7740825,120.3623703
958,崙背鄉,崙背鄉154甲 台19線路,23.7611753,120.3505389
959,崙背鄉,崙背鄉大同路 中山路,23.7611753,120.3505389
960,崙背鄉,崙背鄉156線 雲9線路,23.7587069,120.352988
961,崙背鄉,崙背鄉台19 南昌路（外環道）路,23.7593994,120.3570733
962,崙背鄉,崙背鄉崙前村南昌路 崙前路,23.756662,120.3562172
963,崙背鄉,崙背鄉崙前村6113號,23.757732,120.353551
964,崙背鄉,崙背鄉156線中山路 民有路（雲13） ,23.7607614,120.353431
965,崙背鄉,崙背鄉港尾村156線東興國小前,23.755749,120.374043
966,崙背鄉,崙背鄉154線 大有路,23.7637768,120.3087158
967,崙背鄉,崙背鄉156線 雲11路,23.7592979,120.353306
968,崙背鄉,崙背鄉南陽村忠孝街永昌路,23.7608042,120.3478501
969,崙背鄉,崙背鄉台19線 南光路三叉路（崙背所）,23.7458959,120.3489164
970,崙背鄉,崙背鄉中山、正義、建國路,23.7596921,120.3543167
971,崙背鄉,崙背鄉西榮村民權路 民福路,23.7647395,120.3517021
972,崙背鄉,崙背鄉中山路、南昌路,23.7601391,120.3572981
973,崙背鄉,崙背鄉台19線、崙前路,23.7568079,120.3538444
974,崙背鄉,崙背鄉南光路 崙前路,23.7553347,120.3514113
975,崙背鄉,崙背鄉水尾村雲154 頂街路,23.7862242,120.3528672
976,崙背鄉,崙背鄉民族路 雲15線路,23.7753296,120.3521482
977,崙背鄉,崙背鄉台19線 156線路,,
978,崙背鄉,崙背鄉154線 雲13線路,23.7619069,120.3591304
979,崙背鄉,崙背鄉大同路 長青路,23.756088,120.3457545
980,崙背鄉,崙背鄉大同路、民主路 仁愛街,23.7593737,120.3494039
981,崙背鄉,崙背鄉台19線豐橋北端路,23.7909269,120.3135754
982,北港鎮,北港鎮華勝里華勝路 民政路,23.5753436,120.2989773
983,北港鎮,北港鎮華勝里華勝路 民享路,23.5744127,120.2993141
984,北港鎮,北港鎮華勝里民樂路 文星路,23.5755269,120.2965606
985,北港鎮,北港鎮華勝里民樂路 文明路,23.5762464,120.2961371
986,北港鎮,北港鎮華勝里公園路 民有路,23.5737625,120.3027994
987,北港鎮,北港鎮番溝里158公路 番溝路,23.6250741,120.2762056
988,北港鎮,北港鎮番溝里番溝里活動中心路,23.6225402,120.2776085
989,北港鎮,北港鎮番溝里番溝里192號前路,23.6225402,120.2776085
990,北港鎮,北港鎮番溝里番溝里4213號前路,23.6225402,120.2776085
991,北港鎮,北港鎮番溝里番溝里726號前路,23.6225402,120.2776085
992,北港鎮,北港鎮媽祖大橋北端,23.5664785,120.2919263
993,北港鎮,北港鎮樹腳里過溝11號前路,23.577737,120.273278
994,北港鎮,北港鎮樹腳里頂庄2號前丁字口,23.582301,120.2807
995,北港鎮,北港鎮樹腳里新市場前路,23.577139,120.275832
996,北港鎮,北港鎮樹腳里懷仁街20巷,23.5765375,120.2924222
997,北港鎮,北港鎮樹腳里雲156線 農路,23.5687305,120.3051195
998,北港鎮,北港鎮樹腳里大同路 崇德路,23.5749171,120.2915302
999,北港鎮,北港鎮華勝路 文仁路,23.5778642,120.2981783
1000,北港鎮,北港鎮朝天宮,23.5676568,120.3046284
1001,北港鎮,北港鎮賜福里中正路36號前,23.569945,120.301575
1002,北港鎮,北港鎮賜福里公民路 義民路,23.5700358,120.3032203
1003,北港鎮,北港鎮賜福里義民路 大同路,23.5708223,120.3035609
1004,北港鎮,北港鎮中山路 信義路,23.5652804,120.3041545
1005,北港鎮,北港鎮中山路 中華路,23.5671573,120.3044971
1006,北港鎮,北港鎮中華路 博愛路,23.5673476,120.3034495
1007,北港鎮,北港鎮中山南路 觀光大橋路,23.5622366,120.3036189
1008,北港鎮,北港鎮信義路 博愛路,23.5654889,120.3030841
1009,北港鎮,北港鎮番溝里東榮國小前,23.6127605,120.293602
1010,北港鎮,北港鎮華勝路 新德路(DVS1),23.5835847,120.2992765
1011,北港鎮,北港鎮華勝路 新德路(DVS2),23.5835847,120.2992765
1012,北港鎮,北港鎮北港大橋 防汛道路(DVS1),23.5622366,120.3036189
1013,北港鎮,北港鎮北港大橋 防汛道路(DVS2),23.5622366,120.3036189
1014,北港鎮,北港鎮西勢里民主路 文化路,23.5731178,120.3034373
1015,北港鎮,北港鎮西勢里文化路 文化路36巷,23.5679398,120.3012162
1016,北港鎮,北港鎮西勢里文化路 西勢街十字路,23.5672317,120.3011345
1017,北港鎮,北港鎮北港國中光明路 西勢街 慈德路,23.565655,120.299219
1018,北港鎮,北港鎮北港國中民生路 慈德路 ,23.565655,120.299219
1019,北港鎮,北港鎮民樂路 劉厝路（德安宮）牌樓,23.5908256,120.292809
1020,北港鎮,北港鎮劉厝路15號前路,23.5701819,120.3037568
1021,北港鎮,北港鎮劉厝路54號 76號前三叉路 ,23.5777334,120.3071223
1022,北港鎮,北港鎮雲167劉厝路 新北路,,
1023,北港鎮,北港鎮新街里新南路 愛國街 慶華街45巷 ,23.582584,120.3035731
1024,北港鎮,北港鎮新街里勤儉街 慶華街街 ,23.582912,120.3048883
1025,北港鎮,北港鎮光復里光復路 光復一路,23.5708987,120.2989434
1026,北港鎮,北港鎮光復里永生路 光復一路 ,23.5709001,120.2985074
1027,北港鎮,北港鎮光復里永生路 大同路 ,23.5730024,120.2974073
1028,北港鎮,北港鎮光復里光復路 光復四路,23.5719537,120.2989394
1029,北港鎮,北港鎮義民里博愛路43號旁巷子,23.566991,120.303183
1030,北港鎮,北港鎮義民里義民路光明路,23.5665456,120.3021162
1031,北港鎮,北港鎮義民里義民路旌義街路,23.5677199,120.3028599
1032,北港鎮,北港鎮台19線(草湖里)侯天府牌樓前,23.597662,120.301338
1033,北港鎮,北港鎮雲155線 雲153、156線路,23.5687305,120.3051195
1034,北港鎮,北港鎮雲155線 雲168路往口庄路（好收國小）,23.59879,120.279624
1035,北港鎮,北港鎮穎寧街 民樂路,23.5784825,120.2947111
1036,北港鎮,北港鎮北港大橋北端,23.5622366,120.3036189
1037,北港鎮,北港鎮西勢里文化路 光明路入口,23.5666898,120.3010448
1038,北港鎮,北港鎮扶朝里入口 雲164線路,23.5687305,120.3051195
1039,北港鎮,北港鎮水湳里入口,,
1040,北港鎮,北港鎮公園路 新南路,23.5832301,120.3004724
1041,北港鎮,北港鎮中正路 文化路,23.5696559,120.3018149
1042,北港鎮,北港鎮華南路 中正路,23.570464,120.2996837
1043,北港鎮,北港鎮新厝里入庄路（北辰所）,23.5864436,120.3174272
1044,北港鎮,北港鎮大同路 華勝路（台19） ,23.5721836,120.3000929
1045,北港鎮,北港鎮扶朝里民生路（164） 防汛道路,23.5672437,120.2840746
1046,北港鎮,北港鎮府番里145線 158號前路（雲162線）,23.595398,120.322314
1047,北港鎮,北港鎮府番里191之1號前路,23.5948,120.320046
1048,北港鎮,北港鎮府番里61號復興宮前路,23.5920632,120.3211438
1049,北港鎮,北港鎮公館里博愛路防汛道路 仁和路,23.5712616,120.304911
1050,北港鎮,北港鎮公館里大同路 公館街路,23.570305,120.3049314
1051,北港鎮,北港鎮公館里義民路 復興街,23.5718087,120.3040199
1052,北港鎮,北港鎮新德路（145線） 太平路,23.5876942,120.3048103
1053,北港鎮,北港鎮中和里光明路 新興街,23.5662498,120.3039479
1054,北港鎮,北港鎮中和里信義路 興南街,23.5653575,120.3037698
1055,北港鎮,北港鎮光復里大同路 民樂路,23.5727407,120.2982841
1056,北港鎮,北港鎮光復里光復四路 永生街,23.5719418,120.296993
1057,北港鎮,北港鎮光復里長安街 協和街,23.5733909,120.2942225
1058,北港鎮,北港鎮義民路 民主路,23.5683918,120.3024312
1059,北港鎮,北港鎮大同路 文化路,23.5712081,120.3025565
1060,北港鎮,北港鎮溝皂里雲158線 雲168線交叉路,23.6118402,120.2913448
1061,北港鎮,北港鎮民治路 文昌路,23.5738633,120.3003201
1062,北港鎮,北港鎮文仁路 北辰路,23.5793347,120.3031267
1063,北港鎮,北港鎮新街里興隆街 慶華街16巷,23.5814541,120.3045094
1064,北港鎮,北港鎮中正路 義民路,23.5692699,120.3028473
1065,北港鎮,北港鎮太平路 新南路,23.5817185,120.3057062
1066,北港鎮,北港鎮文仁路 大同路,23.5744809,120.2928884
1067,北港鎮,北港鎮156線 船埔路,23.576529,120.287285
1068,北港鎮,北港鎮156線 樹腳里大庄路,23.5684358,120.2699349
1069,北港鎮,北港鎮156線 雲161線頂庄路,23.582123,120.2800986
1070,北港鎮,北港鎮156線農路,,
1071,北港鎮,北港鎮西勢里光明路 館前路,23.5666898,120.3010448
1072,北港鎮,北港鎮西勢里西勢街 館前路,23.5672317,120.3011345
1073,北港鎮,北港鎮新德路 媽祖醫院前路,23.589779,120.3073961
1074,北港鎮,北港鎮懷仁街14巷巷,23.5760008,120.2923924
1075,北港鎮,北港鎮公園路 民享路,23.5753076,120.3022184
1076,北港鎮,北港鎮太平路54巷防汛道路上,23.5777334,120.3071223
1077,北港鎮,北港鎮華南路 民生路,23.5657106,120.2985669
1078,北港鎮,北港鎮文化、義民、民有路三叉路,23.5741373,120.3039657
1079,北港鎮,北港鎮新街里文仁路158巷,23.5787902,120.2992754
1080,北港鎮,北港鎮扶朝里164線 五福宮牌樓前路,23.5600599,120.2840609
1081,北港鎮,北港鎮扶朝里扶朝一號橋,23.5676145,120.2796787
1082,北港鎮,北港鎮扶朝里104號朝陽國小前路,23.5575857,120.2853439
1083,北港鎮,北港鎮公園路 民有路,23.5737625,120.3027994
1084,北港鎮,北港鎮後溝里灣內防汛道路,23.578912,120.318533
1085,北港鎮,北港鎮後溝里後溝61號前路,23.5862205,120.3233955
1086,北港鎮,北港鎮水埔里水埔27號旁路,23.5503892,120.2820538
1087,北港鎮,北港鎮益安路 益安路160巷,23.5665391,120.3053417
1088,北港鎮,北港鎮防汛道路 厚生路,23.5675994,120.3058165
1089,北港鎮,北港鎮朝天宮東側厚生路,23.5676568,120.3046284
1090,北港鎮,北港鎮雲153線大北里路,23.618378,120.269548
1091,北港鎮,北港鎮華南路 民主路(第1組),23.568523,120.3019773
1092,北港鎮,北港鎮文仁路 民樂路,23.5769935,120.2956672
1093,北港鎮,北港鎮西勢里文化路27巷 西勢街,23.5672147,120.3009065
1094,北港鎮,北港鎮新街里太平路54巷 54巷60弄口,23.577417,120.3075838
1095,北港鎮,北港鎮華勝路 公園路279巷,23.5803482,120.2983992
1096,北港鎮,北港鎮中山南路21巷第一停車場路,23.5641725,120.3031869
1097,北港鎮,北港鎮民有路 文昌路,23.5731009,120.3005952
1098,北港鎮,北港鎮中山路 民生路,23.5645444,120.3040172
1099,北港鎮,北港鎮中正路、新民路 民權路,23.5694412,120.2998799
1100,北港鎮,北港鎮華南路 民主路(第2組),23.568523,120.3019773
1101,北港鎮,北港鎮太平路鎮立游泳池後方路,23.5755796,120.3050445
1102,北港鎮,北港鎮北辰路 興隆街,23.5815654,120.3037271
1103,北港鎮,北港鎮文仁路 公園路,23.5786656,120.300913
1104,北港鎮,北港鎮民樂路 民享路,23.5738764,120.2976133
1105,北港鎮,北港鎮公園路 文化路,23.577737,120.273278
1106,北港鎮,北港鎮文仁路 民樂路,23.5990847,120.3042618
1107,北港鎮,北港鎮文仁路 大同路,23.5744809,120.2928884
1108,北港鎮,北港鎮樹腳里過溝11號前路,23.577737,120.273278
1109,北港鎮,北港鎮草湖里台19線 東湖路,23.6031528,120.3087779
1110,北港鎮,北港鎮草湖里西湖重劃工程紀念碑前路,23.597662,120.301338
1111,北港鎮,北港鎮草湖里東湖路43之6號旁路,23.6032316,120.3089196
1112,北港鎮,北港鎮草湖里東湖土地公廟前路,,
1113,北港鎮,北港鎮文仁路 介壽街路,23.5730818,120.2925047
1114,北港鎮,北港鎮義民路 民族路,23.5731178,120.3034373
1115,北港鎮,北港鎮水埔里水埔43之7號前路,,
1116,水林鄉,水林鄉164線 尖山路,23.552768,120.280007
1117,水林鄉,水林鄉牛桃灣橋,23.604762,120.23984
1118,水林鄉,水林鄉水林路 外環顏厝寮路,23.5708367,120.2555207
1119,水林鄉,水林鄉宏仁路 正義南路,23.603928,120.241559
1120,水林鄉,水林鄉台155線 雲153線路,23.607662,120.238187
1121,水林鄉,水林鄉蔦松大橋北端口,23.5217265,120.2299138
1122,水林鄉,水林鄉雲153線 155線路（蕃薯村入口順天宮牌樓）,23.572568,120.245889
1123,水林鄉,水林鄉蕃薯村蕃東路87號旁丁字路,23.5425589,120.2260829
1124,水林鄉,水林鄉蕃薯村蕃薯厝3之4號前十字路,23.5415256,120.2237584
1125,水林鄉,水林鄉蕃薯村蕃薯厝43之3號前丁字路,23.5415256,120.2237584
1126,水林鄉,水林鄉蕃薯村蕃薯厝47號前丁字路,23.5415256,120.2237584
1127,水林鄉,水林鄉蘇泰村誠正國小,23.620433,120.261529
1128,水林鄉,水林鄉雲153公路 蕃東2號之6十字路,23.5388427,120.2254052
1129,水林鄉,水林鄉水林路 新興南、北路,23.5719209,120.2397484
1130,水林鄉,水林鄉水林路 文化路,23.5724686,120.2456488
1131,水林鄉,水林鄉蕃薯厝入口67號,23.5415256,120.2237584
1132,水林鄉,水林鄉土厝164線 雲161路,23.5687884,120.2670323
1133,水林鄉,水林鄉文明東、西路 宏仁路,23.6065216,120.2386556
1134,水林鄉,水林鄉瓊埔村145號旁路,23.5154672,120.2092275
1135,水林鄉,水林鄉瓊埔村88號順天宮前路,23.514851,120.207155
1136,水林鄉,水林鄉瓊埔村101號旁路,23.514851,120.207155
1137,水林鄉,水林鄉雲146公路 大山村165號前路,23.5626862,120.2397243
1138,水林鄉,水林鄉雲153線 150線路（蔦松國中前）,23.572568,120.245889
1139,水林鄉,水林鄉雲164公路 大溝村路,23.568581,120.2088865
1140,水林鄉,水林鄉文化路 中庄路,23.5751609,120.2462524
1141,水林鄉,水林鄉雲155線 西井村路,23.593373,120.2599266
1142,水林鄉,水林鄉海埔村海埔653號路,23.565397,120.254076
1143,水林鄉,水林鄉春埔村156線 山寮路,23.5414473,120.1875827
1144,水林鄉,水林鄉雲153線（蔦松 頂厝路）,23.5148512,120.2285935
1145,水林鄉,水林鄉新興南路 水林外環道路,23.5690848,120.2400579
1146,水林鄉,水林鄉春埔村156線福興宮前路,23.5978401,120.2515398
1147,水林鄉,水林鄉車港村興隆路19號前路,23.6159536,120.2504259
1148,水林鄉,水林鄉順興村順興路100號前路,23.5549429,120.2042194
1149,水林鄉,水林鄉順興村順興路21號前路,23.5567262,120.207332
1150,水林鄉,水林鄉萬興村雲152線 153線路,23.572568,120.245889
1151,水林鄉,水林鄉松西村松西社區牌樓路,,
1152,水林鄉,水林鄉松西村後厝路306號旁路,23.5150808,120.2251977
1153,水林鄉,水林鄉瓊埔村81號北端路,23.514851,120.207155
1154,水林鄉,水林鄉春埔村88號旁（縣155線）路,23.5991097,120.2499489
1155,水林鄉,水林鄉水北村廟前路 中庄路,23.5749463,120.2412806
1156,水林鄉,水林鄉大溝村大溝8號旁路,23.568581,120.2088865
1157,水林鄉,水林鄉瓊埔村瓊埔路137號旁路,23.514851,120.207155
1158,水林鄉,水林鄉後寮村雲153線七星宮前路,23.5514402,120.2368366
1159,水林鄉,水林鄉蕃薯村順天橋旁路,23.5415256,120.2237584
1160,水林鄉,水林鄉塭底村塭底北營橋頭路,,
1161,水林鄉,水林鄉蘇秦村順安路11號旁路,23.6277194,120.2630425
1162,口湖鄉,口湖鄉蚵寮路 崇文路,23.5724787,120.1759268
1163,口湖鄉,口湖鄉164線 台17線路,23.5749056,120.1492088
1164,口湖鄉,口湖鄉台17線南下100公里處台61線匣道口,23.4850112,120.1603498
1165,口湖鄉,口湖鄉台61線北上匣道路(成龍段),23.5734648,120.1762632
1166,口湖鄉,口湖鄉164線 雲143線路,23.577218,120.1907665
1167,口湖鄉,口湖鄉台17線 雲150線路,23.5292328,120.1856446
1168,口湖鄉,口湖鄉文光路 光明路,23.54567,120.190204
1169,口湖鄉,口湖鄉漁港路 福安路,23.6184703,120.1619496
1170,口湖鄉,口湖鄉台17線中山路民生路,23.6166326,120.1644371
1171,口湖鄉,口湖鄉164線 雲131路(口湖所前),23.5846155,120.179152
1172,口湖鄉,口湖鄉梧南村光明路 光復路（外環道）,23.5482068,120.182276
1173,口湖鄉,口湖鄉梧南村光明路 興農路,23.5456423,120.1896458
1174,口湖鄉,口湖鄉梧南村復興路 中南街,23.5472697,120.1865289
1175,口湖鄉,口湖鄉梧南村興農路52號前十字路,23.5443792,120.1873769
1176,口湖鄉,口湖鄉164線 瑞穗橋路,23.5770055,120.1960373
1177,口湖鄉,口湖鄉過港村復興路 過港路（雲143線）  ,23.5708088,120.1918301
1178,口湖鄉,口湖鄉過港村過港橋（雲143線）,23.5708088,120.1918301
1179,口湖鄉,口湖鄉梧北村復興路162號旁（雲143線）T字路,23.5484662,120.1902068
1180,口湖鄉,口湖鄉梧北村復興路自來水塔前,23.5496842,120.1902886
1181,口湖鄉,口湖鄉宜梧國中前 ,23.547206,120.194765
1182,口湖鄉,口湖鄉台61線（台17線） 雲131路成龍段,23.5749056,120.1513975
1183,口湖鄉,口湖鄉成龍31號前y字路,23.5496842,120.1902886
1184,口湖鄉,口湖鄉雲164線 蚵寮村路,23.547206,120.194765
1185,口湖鄉,口湖鄉台17線 台子村路,23.5749056,120.1513975
1186,口湖鄉,口湖鄉湖東村口湖路 文明路,23.5856323,120.1847153
1187,口湖鄉,口湖鄉崙中村中和 文化路,23.6179386,120.1629787
1188,口湖鄉,口湖鄉港西村海豐路 信義路,,
1189,口湖鄉,口湖鄉?梧村?梧北側滯洪池抽水站旁十字路,,
1190,口湖鄉,口湖鄉水井村台17線 中港路,24.2442357,120.5418723
1191,口湖鄉,口湖鄉中正路 廟前街,23.5845328,120.1827294
1192,口湖鄉,口湖鄉頂湖村雲131線 雲138線路,23.601339,120.1761738
1193,口湖鄉,口湖鄉港東村民主路66號旁路,23.574802,120.1523904
1194,口湖鄉,口湖鄉台子村台興路5之42號旁路,23.5617223,120.1428937
1195,口湖鄉,口湖鄉港東村養魚路 興港路,23.5738438,120.1492058
1196,口湖鄉,口湖鄉青蚶村青蚶路39號旁路,23.5982244,120.161817
1197,台西鄉,台西鄉155線 溪頂村路,,
1198,台西鄉,台西鄉雲158線 雲124線路,23.6900761,120.2244436
1199,台西鄉,台西鄉雲155線牛厝村成功路592號前,23.6650299,120.2123324
1200,台西鄉,台西鄉雲3蚊港村542鎮安宮前叉路,23.7554544,120.2214751
1201,台西鄉,台西鄉和平路158甲線 台17路,23.7233154,120.2175185
1202,台西鄉,台西鄉五港路往崙豐路,23.7189869,120.2071085
1203,台西鄉,台西鄉中山路 民權、民族路,23.70032,120.1990306
1204,台西鄉,台西鄉信義路 忠孝路,23.724244,120.2113841
1205,台西鄉,台西鄉台78線 台17線匣道口,23.6891053,120.1895915
1206,台西鄉,台西鄉文化路 民族路,23.6988165,120.1985673
1207,台西鄉,台西鄉中山路 台17線丁字路,23.7009458,120.1894021
1208,台西鄉,台西鄉158線 雲123路(丁府八千歲前),23.6958264,120.2076215
1209,台西鄉,台西鄉崙豐路 忠孝路,23.7220832,120.2089248
1210,台西鄉,台西鄉155線五港路,23.7133527,120.1988956
1211,台西鄉,台西鄉五港路 台17線立體交叉路,23.7126235,120.2010315
1212,台西鄉,台西鄉崙豐國小 進安府路 ,23.7221693,120.209238
1213,台西鄉,台西鄉台61線 台17線閘道路,23.4846379,120.1696568
1214,台西鄉,台西鄉海南村民族路30巷 文化路（市場前）,23.6988627,120.1983999
1215,台西鄉,台西鄉155線(民權路) 中山路（分局前前三叉路）,23.7001318,120.1997221
1216,台西鄉,台西鄉雲158線萬厝路,,
1217,台西鄉,台西鄉台78線 台17線路(北端),23.6895376,120.1865016
1218,台西鄉,台西鄉台78線 台17線路(南端),23.689513,120.1859652
1219,台西鄉,台西鄉台17線 台61線交流道湖仔內路,3.4846379,120.1696568
1220,台西鄉,台西鄉牛厝村155線泉州國小前路,23.6754998,120.2042906
1221,台西鄉,台西鄉蚊港村康熙橋南端路（用AP無線）,,
1222,台西鄉,台西鄉五港村海豐路 中央路,23.7171163,120.1997331
1223,台西鄉,台西鄉台61線231公里處南下,,
1224,台西鄉,台西鄉台61線230.9公里處北上,,
1225,台西鄉,台西鄉海南村民族路30巷濟玄宮旁大排路,23.6975385,120.1949261
1226,四湖鄉,四湖鄉關聖路 保安路,23.6388859,120.2269583
1227,四湖鄉,四湖鄉溪底村溪底三叉路,23.6544622,120.2705369
1228,四湖鄉,四湖鄉中山西路 中湖路,23.6376176,120.2210445
1229,四湖鄉,四湖鄉鹿場村下鹿場路 雲136線口,23.6140507,120.2350856
1230,四湖鄉,四湖鄉箔東村大廟前,,
1231,四湖鄉,四湖鄉建陽國小大門前,23.6335103,120.151431
1232,四湖鄉,四湖鄉中山東路 至善街,23.6371863,120.2307125
1233,四湖鄉,四湖鄉台17線 中興路,23.6277776,120.1678269
1234,四湖鄉,四湖鄉155線施湖村東庄寮晉安宮前,23.6517821,120.2170775
1235,四湖鄉,四湖鄉中山路、海清路、延平北路、延平南路十字路,23.6524379,120.1569676
1236,四湖鄉,四湖鄉號台17線 雲160線路（飛沙大同路）,23.637233,120.2301954
1237,四湖鄉,四湖鄉中正路（雲155） 中山東西路（雲160）路統一超商前,23.6374289,120.2258989
1238,四湖鄉,四湖鄉中正路 中湖巷(雲155線丁字路),23.6425659,120.2228311
1239,四湖鄉,四湖鄉中正路155線 外環道丁字路,,
1240,四湖鄉,四湖鄉林厝村台17線林厝派出所前丁字路,23.6717485,120.1781722
1241,四湖鄉,四湖鄉羊調村中洋北路 中洋南石(雲160線)路,23.6391973,120.1956012
1242,四湖鄉,四湖鄉台61 160線口（三崙交流道）,23.6426295,120.1768333
1243,四湖鄉,四湖鄉湖寮村136線 下寮路,23.6185481,120.2101092
1244,四湖鄉,四湖鄉雲129線廣溝路,23.641046,120.154745
1245,四湖鄉,四湖鄉內湖村下桂山132線三叉路,,
1246,四湖鄉,四湖鄉中山西路 金山街路,23.6376193,120.222997
1247,四湖鄉,四湖鄉蔡厝路埤尾64號,23.6124443,120.2194751
1248,四湖鄉,四湖鄉雲160線 四湖外環道路（瀝青廠旁）,23.6378317,120.2242949
1249,四湖鄉,四湖鄉蔡厝村蔡厝5號前路,23.6124443,120.2194751
1250,四湖鄉,四湖鄉153線溪底段魚寮十字路,,
1251,四湖鄉,四湖鄉雲136線 雲141線路,23.6109979,120.1895286
1252,四湖鄉,四湖鄉東湖橋南端路,,
1253,四湖鄉,四湖鄉關聖路 保安路,23.6388859,120.2269583
1254,四湖鄉,四湖鄉台17線 雲160線路,23.6436535,120.1697879
1255,四湖鄉,四湖鄉台61線 160線路(三崙交流道),23.6442217,120.170632
1256,四湖鄉,四湖鄉箔東村大廟前,,
1257,四湖鄉,四湖鄉環湖西路 中湖路,23.6346584,120.2210925
1258,四湖鄉,四湖鄉環湖東路 中山東路,23.637091,120.2318016
1259,四湖鄉,四湖鄉中山東路 雲165線路,23.635735,120.2477328
1260,四湖鄉,四湖鄉保長路 鬼仔山線大排路,,
1261,四湖鄉,四湖鄉崙北村海清宮前路,23.6572914,120.1534134
1262,四湖鄉,四湖鄉台78線0.3公里處,,
1263,東勢鄉,東勢鄉文化路 外環158線丁字路,,
1264,東勢鄉,東勢鄉153線 昌南路,,
1265,東勢鄉,東勢鄉台78線快速道路 雲153線路(DVS1),23.6848823,120.2539045
1266,東勢鄉,東勢鄉台78線快速道路 雲153線路(DVS2),23.6848823,120.2539045
1267,東勢鄉,東勢鄉雲153線 雲158甲線路,,
1268,東勢鄉,東勢鄉東勢東路 東榮路、康安路(東勢分駐所前),23.6751772,120.2553355
1269,東勢鄉,東勢鄉東榮路 嘉芳南路（東勢國中）,23.6728846,120.2558139
1270,東勢鄉,東勢鄉新坤村153線 外環道(新153線)路,,
1271,東勢鄉,東勢鄉東勢西路 北環西路(東興加油站前),23.680266,120.24837
1272,東勢鄉,東勢鄉南昌村雲7線南天宮前（安南所）,23.6951129,120.260844
1273,東勢鄉,東勢鄉同安村158線 雲7線路（安南所）,23.7206658,120.2658072
1274,東勢鄉,東勢鄉月眉村158線 月眉路,23.6829178,120.2847513
1275,東勢鄉,東勢鄉富農南路 嘉芳北路,23.6744228,120.2508019
1276,東勢鄉,東勢鄉新153線興158甲線（昌南路）,,
1277,東勢鄉,東勢鄉153線(嘉隆路) 嘉芳南路、嘉勝路路,23.6622424,120.24819
1278,東勢鄉,東勢鄉新153線 昌南路,23.6952826,120.2607741
1279,麥寮鄉,麥寮鄉台17線 仁德路,23.7959526,120.2786804
1280,麥寮鄉,麥寮鄉雲154線 後安路（橋頭國小許厝寮分校）,23.7655127,120.2461931
1281,麥寮鄉,麥寮鄉台17線 雲1號路,23.7782263,120.2675274
1282,麥寮鄉,麥寮鄉橋頭村台17 1北上、南下車道,,
1283,麥寮鄉,麥寮鄉橋頭村橋頭335號前台61北上、南下車道,23.7969757,120.2738752
1284,麥寮鄉,麥寮鄉雲一線 雲特一線路,,
1285,麥寮鄉,麥寮鄉雲特一線和後安路,,
1286,麥寮鄉,麥寮鄉台17線更生橋,23.7824719,120.2685111
1287,麥寮鄉,麥寮鄉六輕砂石車專用道新吉段路,,
1288,麥寮鄉,麥寮鄉仁德路 橋頭路,23.7970163,120.2738903
1289,麥寮鄉,麥寮鄉聯一道路 台61線路(橋頭交流道),23.7461826,120.2651297
1290,麥寮鄉,麥寮鄉台17線 湖內路,23.7538447,120.2520997
1291,麥寮鄉,麥寮鄉施厝村施厝230號旁路(全家超商旁),23.7952511,120.2812958
1292,麥寮鄉,麥寮鄉雷厝村雷厝27號旁路(往豐榮村),23.804631,120.284958
1293,麥寮鄉,麥寮鄉新吉村新吉1號前路,23.8008606,120.2787871
1294,麥寮鄉,麥寮鄉新吉村新吉34號前路,23.8008606,120.2787871
1295,麥寮鄉,麥寮鄉154線三盛村福安宮前路(統一超商旁),23.7972589,120.265446
1296,麥寮鄉,麥寮鄉154線許厝分校前路(南北向),23.7969911,120.2235872
1297,麥寮鄉,麥寮鄉聯一道路 雲3路,23.7636339,120.2700002
1298,麥寮鄉,麥寮鄉雷厝村雷厝10110號旁路,23.8057741,120.286544
1299,麥寮鄉,麥寮鄉海豐村中和32號旁路,23.7674405,120.2154073
1300,麥寮鄉,麥寮鄉雷厝村10鄰江厝27號旁路,23.8049321,120.2898887
