address,lat,lng,date
雲林縣水林鄉蕃薯村蕃薯厝路,23.5415256,120.2237584,105/01/15 17:50
雲林縣斗南鎮西岐里和平街,23.6804463,120.4724504,105/01/20 04:30
雲林縣口湖鄉下崙村福安路,23.6237594,120.1645832,105/01/01 12:40
雲林縣林內鄉重興村重興路,23.7663799,120.5785663,105/01/09 12:40
雲林縣崙背鄉阿勸村?園路,23.7610467,120.3417689,105/01/27 11:10
雲林縣土庫鎮崙內里崙內路,23.6856184,120.3586961,105/01/30 13:05
雲林縣北港鎮劉厝里劉厝路,23.5855482,120.2902105,105/03/04 12:20
雲林縣斗六市龍潭路,23.6923115,120.5304887,105/03/07 22:30
雲林縣北港鎮義民里義民路,23.5675089,120.3022363,105/03/14 15:20
雲林縣虎尾鎮大庄,23.712611,120.459434,105/03/08 12:30
雲林縣斗六市愛國街,23.7094662,120.539947,105/03/08 22:11
雲林縣口湖鄉埔南村外埔,23.5974369,120.1906803,105/03/08 19:13
雲林縣口湖鄉梧北村復興路,23.5496842,120.1902886,105/03/30 16:30
雲林縣二崙鄉大華村華北路,23.8007458,120.4210659,105/03/01 13:37
雲林縣虎尾鎮惠來,23.730426,120.485882,105/03/20 13:00
雲林縣斗六市莊敬路,23.7033601,120.5467804,105/03/30 07:31
雲林縣西螺鎮吳厝里吳厝路,23.7461682,120.4245845,105/03/24 15:00
雲林縣崙背鄉西榮村和平路,23.7616383,120.3513833,105/03/15 16:00
雲林縣虎尾鎮惠來,23.730426,120.485882,105/03/31 13:45
雲林縣崙背鄉羅厝村東興路,23.7573715,120.3668753,105/03/19 22:00
雲林縣虎尾鎮成德五街,23.7102985,120.4497798,105/03/26 05:48
雲林縣莿桐鄉甘厝村甘厝,23.7564678,120.4919227,105/04/14 03:20
雲林縣虎尾鎮大庄路,23.7052359,120.4602287,105/04/15 16:30
雲林縣虎尾鎮北平路,23.7094902,120.4272203,105/04/23 13:22
雲林縣虎尾鎮光復路,23.7097507,120.4417973,105/03/28 13:00
雲林縣北港鎮西勢里文化路,23.5676664,120.3011731,105/04/24 20:40
雲林縣北港鎮劉厝里劉厝路,23.5855482,120.2902105,105/04/26 21:45
雲林縣台西鄉溪頂村溪頂路,23.6797259,120.1817909,105/04/30 13:00
雲林縣麥寮鄉橋頭村橋頭路,23.7932146,120.2727919,105/04/04 10:00
雲林縣北港鎮光民里益安路,23.5673064,120.3055033,105/04/28 20:30
雲林縣水林鄉塭底村塭底路,23.5159407,120.2020537,105/04/28 10:30
雲林縣北港鎮華勝里民政路,23.5754656,120.2993466,105/03/25 19:32
雲林縣虎尾鎮中正路,23.7065507,120.4315365,105/05/04 14:30
雲林縣古坑鄉永光村大湖口路,23.618985,120.5656568,105/02/20 12:00
雲林縣林內鄉林中村三星路,23.7779336,120.6164314,105/05/13 09:00
雲林縣莿桐鄉埔子村榮村,23.752736,120.512861,105/01/31 19:42
雲林縣古坑鄉朝陽村大埔路,23.6392605,120.5947962,105/05/15 16:00
雲林縣西螺鎮詔安里埔心路,23.7988208,120.4445159,105/04/01 00:00
雲林縣麥寮鄉橋頭村仁德路,23.7971944,120.2723295,105/04/03 07:20
雲林縣斗南鎮田頭里田福路,23.7012368,120.4892156,105/05/04 16:12
雲林縣元長鄉潭西村,23.6424959,120.2873266,105/04/12 14:02
雲林縣口湖鄉湖東村文明路,23.5886026,120.1865661,105/04/26 15:13
雲林縣斗六市中南路,23.7341896,120.5589347,105/03/24 08:40
雲林縣斗六市大智街,23.7013194,120.5397783,105/03/20 09:00
雲林縣大埤鄉松竹村松西,23.6382735,120.4501653,105/04/26 14:07
雲林縣大埤鄉豐田村大埤路,23.6629226,120.4639335,105/01/22 15:04
雲林縣口湖鄉梧南村光明路,23.5461086,120.1881683,105/04/22 07:59
雲林縣虎尾鎮埒內,23.721184,120.445217,105/05/13 14:30
雲林縣台西鄉蚊港村蚊港,23.756811,120.220344,105/05/23 16:00
雲林縣崙背鄉西榮村民族路,23.7695438,120.351153,105/06/03 03:00
雲林縣斗南鎮埤麻里新厝,23.6795658,120.4497507,105/06/13 11:06
雲林縣元長鄉卓運村庄內路,23.6424836,120.348028,105/06/15 08:30
雲林縣斗六市檨林路,23.6954926,120.6195275,105/05/15 11:50
雲林縣北港鎮華勝里民族路,23.5727277,120.3021267,105/05/26 20:40
雲林縣崙背鄉五魁村五常路,23.7682297,120.3245456,105/06/09 13:30
雲林縣斗六市光復路,23.7245316,120.5951257,105/06/17 10:10
雲林縣崙背鄉豐榮村豐榮路,23.7931056,120.3065571,105/05/21 18:30
雲林縣西螺鎮新豐里平和南路,23.789019,120.4490633,105/04/13 19:10
雲林縣二崙鄉油車村山子門路,23.7953728,120.3845463,105/01/14 10:00
雲林縣斗六市三和街,23.7052355,120.5377928,105/04/23 09:50
雲林縣口湖鄉水井村水井路,23.5286697,120.185477,105/06/22 10:09
雲林縣虎尾鎮下南,23.6807957,120.4044216,105/06/28 12:09
雲林縣斗六市雲林路2段,23.7012111,120.5287374,105/04/23 11:53
雲林縣四湖鄉飛東村大同路,23.6419945,120.1825342,105/06/12 15:00
雲林縣虎尾鎮中山路,23.7063715,120.4350973,105/05/22 01:04
雲林縣麥寮鄉海豐村永和,23.7753615,120.2446492,105/06/21 14:00
雲林縣口湖鄉水井村水井路,23.5286697,120.185477,105/04/03 13:05
雲林縣斗六市十三南路,23.7458862,120.5658873,105/06/13 22:30
雲林縣土庫鎮民生路,23.707572,120.3542284,105/06/28 08:57
雲林縣水林鄉蘇秦村蘇秦路,23.6200598,120.2593406,105/06/02 12:00
雲林縣西螺鎮鹿場里南興路,23.746958,120.477559,105/06/26 19:20
雲林縣西螺鎮中山路,23.7994431,120.4558638,105/05/06 13:00
雲林縣西螺鎮,23.7755286,120.447285,105/06/13 06:15
雲林縣西螺鎮漢光里中山路,23.7987884,120.4512174,105/04/23 17:10
雲林縣虎尾鎮東屯,23.7030636,120.3983097,105/06/03 20:00
雲林縣二崙鄉港後村安平路,23.8040585,120.3958384,105/05/30 11:29
雲林縣二崙鄉大庄村1鄰大庄路,23.8043656,120.3759882,105/03/26 05:30
雲林縣東勢鄉守密街,23.6656916,120.260709,105/04/19 08:00
雲林縣口湖鄉蚵寮村忠孝街,23.5726841,120.177356,105/06/21 14:00
雲林縣元長鄉安寧街,23.6487113,120.319323,105/06/15 08:00
雲林縣大埤鄉西鎮村西鎮路,0,0,105/07/05 15:30
雲林縣莿桐鄉南安路,23.7555815,120.4972335,105/07/04 12:00
雲林縣元長鄉興安路,23.6388053,120.3006328,105/07/06 14:39
雲林縣西螺鎮東興里東興路,23.770128,120.477269,105/07/14 08:50
雲林縣元長鄉元東路,23.6562596,120.3229924,105/07/14 14:08
雲林縣虎尾鎮惠來,23.730426,120.485882,105/07/15 15:30
雲林縣二崙鄉崙東村崙北路,23.771285,120.414988,105/07/25 11:30
雲林縣莿桐鄉麻園村榮貫,23.774537,120.531452,105/07/28 01:00
雲林縣二崙鄉大義村後庄路,23.7891166,120.4022743,105/07/27 00:25
雲林縣莿桐鄉埔子村埔子,23.7531166,120.5135161,105/07/24 10:23
雲林縣北港鎮仁和里仁和路,23.5692332,120.3053395,105/07/11 02:55
雲林縣西螺鎮安定里安定路,23.8002762,120.4363815,105/07/11 21:30
雲林縣土庫鎮馬光路,23.6986361,120.3675365,105/07/07 10:18
雲林縣四湖鄉內湖村三塊厝,23.624773,120.199106,105/08/13 09:00
雲林縣褒忠鄉新湖路,23.6962397,120.3097278,105/07/25 03:00
雲林縣麥寮鄉後安村後安路,23.7655354,120.246193,105/08/18 19:44
雲林縣斗六市文化路,23.713499,120.5586902,105/07/06 05:00
雲林縣虎尾鎮平和路,23.7018501,120.4583875,105/07/17 03:00
雲林縣北港鎮樹腳里懷仁路,23.5758254,120.2922033,105/08/11 13:15
雲林縣西螺鎮埤頭里埤頭路,23.7730641,120.4750787,105/08/31 13:20
雲林縣虎尾鎮工專路,23.702856,120.4249902,105/08/04 04:00
雲林縣北港鎮水埔里水埔路,23.552768,120.280007,105/08/21 19:00
雲林縣北港鎮樹腳里宗聖路,23.5751873,120.2907604,105/08/11 17:30
雲林縣東勢鄉安南村安南路,23.7026,120.2512697,105/09/10 14:10
雲林縣莿桐鄉中正路,23.7574412,120.4986014,105/08/30 09:31
雲林縣斗六市嘉東南路,23.6816027,120.5454038,105/07/30 12:00
雲林縣斗六市嘉東南路,23.6816027,120.5454038,105/08/27 15:00
雲林縣斗六市嘉東南路,23.6816027,120.5454038,105/09/01 12:00
雲林縣北港鎮新街里華勝路,23.5848801,120.2996195,105/07/07 16:00
雲林縣北港鎮草湖里西湖路,23.600766,120.304393,105/09/05 15:31
雲林縣北港鎮樹腳里協和街,23.5735243,120.2936994,105/09/21 10:51
雲林縣古坑鄉田心村溪洲,23.659568,120.549517,105/09/16 11:30
雲林縣西螺鎮漢光里中山路,23.7987884,120.4512174,105/07/20 12:02
雲林縣北港鎮新街里正義街,0,0,105/09/26 13:43
雲林縣莿桐鄉興貴村興南路,0,0,105/08/04 06:40
雲林縣北港鎮華勝里文化路,23.5731178,120.3034373,105/10/18 23:50
雲林縣斗六市梅林路,23.7026921,120.5983411,105/10/20 09:00
雲林縣褒忠鄉埔姜街,23.6972596,120.3118952,105/09/29 12:46
雲林縣斗南鎮東明里新庄,23.68436,120.492612,105/10/11 12:00
雲林縣水林鄉車港村車巷口,23.6093793,120.2644418,105/10/07 21:26
雲林縣斗六市中興路,23.7276829,120.5743279,105/10/27 17:00
雲林縣崙背鄉大有村大有路,23.7637768,120.3087158,105/10/20 16:00
雲林縣虎尾鎮新吉,23.701122,120.42234,105/09/19 07:00
雲林縣莿桐鄉興貴村興南路,0,0,105/11/06 22:00
雲林縣斗六市仁義路,23.6751463,120.537613,105/10/06 21:00
雲林縣古坑鄉新庄村新庄,23.692065,120.584559,105/11/11 20:30
雲林縣虎尾鎮五間厝路,23.6987527,120.4284548,105/11/12 22:30
雲林縣虎尾鎮八德街,23.7007035,120.4286232,105/11/07 03:30
雲林縣北港鎮光復里大同路,23.5725066,120.2990255,105/11/01 10:03
雲林縣元長鄉好收路,23.6010496,120.2765966,105/11/09 17:00
雲林縣斗南鎮大東里大東,23.687099,120.461402,105/11/05 18:00
雲林縣斗六市內環路,23.7120877,120.5486132,105/11/25 14:00
雲林縣西螺鎮永安里大橋路,23.8031852,120.4637912,105/11/25 18:30
雲林縣西螺鎮漢光里中山路,23.7987884,120.4512174,105/09/14 03:00
雲林縣麥寮鄉中興村仁德西,23.7973255,120.2364511,105/10/31 17:10
雲林縣斗六市長平路,23.70271,120.5017744,105/11/04 08:00
雲林縣斗南鎮西岐里七賢街,23.6819165,120.4710076,105/11/30 07:30
雲林縣斗六市興合路,23.7185308,120.5594355,105/11/09 13:30
雲林縣北港鎮新街里新南路,23.5821263,120.3042668,105/11/01 10:30
雲林縣四湖鄉民權路,0,0,105/11/21 12:58
雲林縣虎尾鎮公安路,23.7089989,120.4331665,105/11/08 17:00
雲林縣水林鄉塭底村新塭路,0,0,105/08/12 09:00
雲林縣二崙鄉永定村永定路,23.795895,120.4191273,105/10/17 08:00
雲林縣元長鄉潭墘,23.6804053,120.4716885,105/11/26 15:00
雲林縣斗南鎮和平街,23.6804053,120.4716885,105/12/20 08:30
雲林縣元長鄉西庄,23.622327,120.304432,105/12/01 10:51
雲林縣西螺鎮永安里大橋路,23.8031852,120.4637912,105/12/26 21:10
雲林縣虎尾鎮新吉,23.701122,120.42234,105/12/30 22:00
